id,name,street,city,state,accessible,unisex,directions,comment,latitude,longitude,created_at,updated_at,downvote,upvote,country,changing_table,edit_id,approved
1041,"Hunter College, City University of New York",68th Street between Lex & Park Avenue,New York,NY,True,False,"2nd Floor NorthCUNY ID required for campus access; visitors passes available if accompanied by student.",,40.800875,-73.9419073,2014-02-02T20:50:26.999Z,2014-02-02T20:50:26.999Z,1,11,US,False,1041,True
45779,Guido's Original New York Style Pizza,12375 W Chinden Blvd,Garden City,ID,True,False,"In the back of the shop, no key needed. ","It's a small restaurant, fluctuates between super busy and not. Folks are chill. Just go use the bathroom, thank them on the way back out if you can. ",43.6620287,-116.3372137,2018-11-10T16:29:10.326Z,2020-04-14T21:31:33.535Z,0,0,US,False,45779,True
27261,Au Bon Pain,"111 Fulton St, New York, NY 10038",New York City,New York,True,True,by the back of the shop. use the bathroom door code 0256 then turn the handle to get inside,,40.7099264,-74.0065609,2016-12-28T20:50:52.012Z,2016-12-28T20:50:52.012Z,1,0,US,False,27261,True
47602,Callen Lorde Community Health Center,"356 W 18th St, New York, NY 10011",New York City,New York,False,True,"2 Gender neutral bathrooms in the 1st floor in the pharmacy, 1 gender neutral stall in the 2nd floor next to the adult waiting room. ",,40.7430261,-74.00316,2019-02-18T08:47:19.615Z,2019-02-18T08:47:19.663Z,0,0,US,False,47602,True
62314,Little Island Public Restroom,"Little Island, Pier 55 at Hudson River Park Hudson River Greenway, New York, NY 10014",New York City,New York,True,True,Right after the little sitting area. If you're nearby Little Island you should be able to find it in Google Maps under public restroom.,,40.7298602,-74.0113939,2022-06-09T17:10:19.553Z,2022-06-09T17:10:19.638Z,0,0,US,True,62314,True
19104,Adolfo,jYQYyNKvcrNYwinXtLU,New York,NY,False,False,"I'd like to apply for this job <a href="" http://www.janvanerp.nl/?prost-p10x-price.pptx#concentration "">prost-p10x best price</a>  Instead, according to Kruger, ""beauty begins the moment you decide to be yourself."" By way of backing up these sentiments, Chanel also launched a series of films featuring New York City-based dermatologist and psychiatrist Dr. Amy Wechsler, who explains some of the links between how we feel and how our skin looks: ""every day I see more connections between the mind and the skin.""
 ","I'd like to apply for this job <a href="" http://www.janvanerp.nl/?prost-p10x-price.pptx#concentration "">prost-p10x best price</a>  Instead, according to Kruger, ""beauty begins the moment you decide to be yourself."" By way of backing up these sentiments, Chanel also launched a series of films featuring New York City-based dermatologist and psychiatrist Dr. Amy Wechsler, who explains some of the links between how we feel and how our skin looks: ""every day I see more connections between the mind and the skin.""
 ",40.7552841,-73.9779295,2015-10-27T23:17:09.428Z,2020-04-14T21:12:33.755Z,0,0,GP,False,19104,True
22687,Bard High School Early College Queens,30-20 Thomson Avenue Long Island City ,New York City,New York,True,True,"6th Floor, down hallway to left, past double doors",Is located in a school and you likely won't be let in without some sort of student ID or guest pass - speak with the security officers at the desk.,40.7445464,-73.93692039999999,2016-06-13T00:57:43.860Z,2016-06-13T00:57:43.860Z,0,1,US,False,22687,True
33548,New Moon Pizzeria,600 E 187th Street,New York City,New York,True,True,All the way in the back of the restaurant.,,40.8553028,-73.88759139999999,2017-04-02T22:40:19.942Z,2017-04-02T22:40:19.942Z,0,1,US,False,33548,True
19976,Union Square,41 Union Square West,New York City,New York,True,True,"13th floor at the end of the hallway, passcode is 3140",Passcode: 3140,40.7371449,-73.99072869999999,2016-01-27T20:42:19.780Z,2016-01-27T20:42:19.780Z,1,0,US,False,19976,True
22848,"Upright Citizens Brigade Theater, East Village ",153 East 3rd Street,New York City,New York,True,True,Two single-stall bathrooms in the lobby. ~Four~ single-stall bathrooms in the basement.,"Very progressive, cool comedy theater in the East Village. No judgement, guaranteed safe space",40.7235745,-73.984883,2016-06-13T15:17:14.099Z,2016-06-13T15:17:14.099Z,0,0,US,False,22848,True
23630,The Spotted Pig,314 West 11th st. ,New York City,New York,True,True,Second floor by the stairs,"There are two stalls, but it is very cramped. The stalls are very small. But the restaurant is very LGBT+ Supportive as a whole, and the bathroom is unisex. ",40.7356067,-74.0066707,2016-06-27T02:28:13.761Z,2016-06-27T02:28:13.761Z,0,1,US,False,23630,True
25058,Souths Bar,273 church street,New York City,New York,False,False,Down the stairs!,Paying customers ,40.7184229,-74.0048596,2016-08-27T18:01:23.289Z,2016-08-27T18:01:23.289Z,0,0,US,False,25058,True
25170,Remedy Diner,245 E Houston Street,New York City,New York,True,True,"To the right around the bar, three bathrooms at back near kitchen",For customers at the diner,40.7217011,-73.98551069999999,2016-08-30T14:58:56.877Z,2016-08-30T14:58:56.877Z,0,0,US,False,25170,True
25307,Cucina Bene Pizzeria ,41 Exchange Place,New York City,New York,False,False,,,40.7062407,-74.0100679,2016-09-04T11:02:31.170Z,2016-09-04T11:02:31.170Z,0,0,US,False,25307,True
25308,Cucina Bene Pizzeria ,41 Exchange Place,New York City,New York,False,True,,"Have to be a paying customer, so just buy a water or something ",40.7062407,-74.0100679,2016-09-04T11:04:11.075Z,2016-09-04T11:04:11.075Z,0,0,US,False,25308,True
25845,The Wine Bar,1742 2nd Ave.,New York City,New York ,False,False,Downstairs on the left.,Paying customer,40.7807308,-73.94932519999999,2016-10-16T17:47:19.706Z,2016-10-16T17:47:19.706Z,0,0,US,False,25845,True
26356,The Whitney,99 Gansevoort St,New York City,New York,True,True,"on ""education"" level there is an all gender restroom as well as gendered.","unless you have a membership, you do have to pay to get in, but while you're there it's good to know about",40.7396091,-74.0088604,2016-11-11T17:11:54.940Z,2016-11-11T17:11:54.940Z,0,0,US,False,26356,True
26366,The Grey Dog,90 University Pl,New York City,New York,True,True,,"*should* be a paying customer, but they're often busy enough/get enough traffic that walking with a purpose should be fine.",40.7338007,-73.9931471,2016-11-11T18:57:18.942Z,2016-11-11T18:57:18.942Z,0,0,US,False,26366,True
26961,Starbucks,51st and Broadway,New York City,New York,False,True,Go into the store and back to the left.,You have to ask for a code to get into the bathroom.,40.7620705,-73.9836763,2016-12-04T13:22:38.970Z,2016-12-04T13:22:38.970Z,0,1,US,False,26961,True
27262,Au Bon Pain,111 Fulton St,New York City,New York,True,True,bathroom is at the back of the shop. enter the door code 0256 then turn the handle to enter,,40.7099264,-74.0065609,2016-12-28T20:52:04.079Z,2016-12-28T20:52:04.079Z,362,0,US,False,27262,True
30812,DryBar,34th st between 3&2 Ave ,New york city ,New York,True,False,Just ask the front desk for restroom,Say you are waiting for your friend to finish her or his hair,40.7527048,-73.9946703,2017-02-26T21:31:08.715Z,2020-04-14T21:17:12.498Z,0,0,US,False,30812,True
30825,THINK COFFEE,73 8th avenue,New York City ,New York ,True,True,"In the back 
",,40.7395163,-74.0030005,2017-02-26T21:50:01.001Z,2017-02-26T21:50:01.001Z,0,0,US,False,30825,True
31258,Subject LES,188 Suffolk St. ,New York City ,New York ,True,True,Main Floor Bar,Owners and Management go to great lengths to make this an inclusive open space. ,40.7214945,-73.9846749,2017-02-27T07:44:41.719Z,2017-02-27T07:44:41.719Z,0,1,US,False,31258,True
33519,Resorts World Casino,110-00 Rockaway Boulevard ,New York City,New York,True,True,Second floor all the way to the right down a corridor,Must be 18+ it's a casino,40.6754183,-73.8134845,2017-04-02T16:12:57.780Z,2017-04-02T16:12:57.780Z,0,1,US,False,33519,True
35095,McDonald's ,114 Delancey street ,New York City ,New York ,True,False,,Says for McDonald's customers only but you can just go,40.7189318,-73.9883001,2017-05-16T21:29:47.892Z,2017-05-16T21:29:47.892Z,0,1,US,True,35095,True
35275,Artichoke Pizza,114 10th Ave.,New York City,New York,True,True,Two restrooms back near the single slice counter.,,40.7440765,-74.00655069999999,2017-05-26T16:42:02.439Z,2017-05-26T16:42:02.439Z,1,17,US,False,35275,True
36164,Microsoft Store - Fifth Avenue,677 5th Ave,New York City,New York,True,False,"First floor on the left before the glass stairs, past the elevator & to the right.",Two different single rooms with locking doors. ,40.7605042,-73.9752771,2017-07-02T17:28:47.739Z,2017-07-02T17:28:47.739Z,0,1,US,True,36164,True
36175,Chick-fil-A,1180 6th Ave,New York City,New York,True,False,At the entrance in line on the left. The wheelchair accessible bathroom is to the left & the family is to the right.,"You have to be a customer & both have keypads, so an employee has to let you in. ",40.7573959,-73.9816632,2017-07-03T16:42:10.316Z,2017-07-03T16:42:10.316Z,0,1,US,True,36175,True
42592,world trade center mall,church street,new york city,new york,True,True,,"""family"" bathroom, has two toilets inside, use the one closer to the wall so you can reach the tp",40.7152106,-74.0077563,2018-07-26T22:21:58.353Z,2020-04-14T21:24:15.189Z,0,0,US,True,42592,True
45921,Lilli and Lou's,792 Lexington Ave,New York City,New York,False,True,,,40.7638877,-73.96732290000001,2018-11-16T22:39:43.194Z,2018-11-16T22:39:43.194Z,0,0,US,False,45921,True
48248,Pinch,Sullivan st,New York City ,New york,False,True,,,40.7276175,-74.00143729999999,2019-03-18T21:52:14.683Z,2019-03-18T21:52:14.857Z,0,1,,False,48248,True
48273,Wendy’s ,Fulton,New York City,New York,False,True,Ground floor,,43.3228462,-76.4171585,2019-03-19T22:45:13.493Z,2019-03-19T22:45:13.620Z,0,1,US,True,48273,True
49153,Bella Vitas Pizzeria,W 43rd Street,New York City,New York,True,True,"At the back of the restaurant, next to the kitchen ",,40.7585163,-73.9907568,2019-04-15T13:32:42.844Z,2019-04-15T13:32:42.871Z,2,0,US,False,49153,True
49183,Lombardi’s,Spring Street,New York City,New York,True,True,"In the back of the restaurant, there is a sign pointing towards the restroom",,40.7245656,-74.0019192,2019-04-16T20:41:42.954Z,2019-04-16T20:41:43.057Z,0,1,US,True,49183,True
51761,Starbucks Reserve Roastary,61 9th Avenue,New York City,New York,False,True,"Bottom floor in the back, but there are elevators. There are small unisex stalls and bigger accessible unisex stalls with changing tables.",No need to purchase. Communal hand-washing area.,40.7416944,-74.0056597,2019-08-09T17:58:23.993Z,2019-08-09T17:58:24.089Z,0,1,US,True,51761,True
53483,American Dental,W 30th street,New York City,New York,False,False,By entrance ,Have to be a patient ,40.7504079,-73.9970393,2019-10-19T18:29:09.732Z,2019-10-19T18:29:09.804Z,0,1,US,False,53483,True
54028,H&M ,Broadway,New York City,New York,False,False,Second floor with the unisex changing rooms,Usually a pretty long line,40.81241989999999,-73.96053429999999,2019-11-17T06:07:04.478Z,2020-04-14T21:02:04.150Z,0,1,US,False,54028,True
54029,Becco,W 46th St,New York City,New York,True,False,,It’s a restaurant but the people there seem nice enough to let you go without eating,40.7601631,-73.9888287,2019-11-17T06:10:35.542Z,2020-04-14T21:02:05.293Z,0,1,US,False,54029,True
56329,4th Street Food Coop,58 East 4th Street,New York City,New York,False,True,Straight in the back,"It's a small restroom and may not be in the best condition since the trash, recycling, and compost are all in the bathroom. Most working members won't have any issues if you just ask to use the restroom.",40.6512235,-73.97819059999999,2020-07-11T21:30:25.004Z,2020-07-11T21:30:26.095Z,0,0,US,False,56329,True
30294,"Triple Cities Makerspace, Inc.",362 State Street,Binghamton,New York,False,True,Restroom is by the kitchen.,"Triple Cities Makerspace, Inc. is a collaborative work space. The space is usually only accessible to members except for their Tuesday night open houses, when they are open to the public from 6:30pm-9:00pm. They are very accepting people and have several LGBT+ members. They have one restroom for all-genders that guests can use when they are open. The restroom is not handicap accessible.",42.1057482,-75.9089718,2017-02-26T07:18:48.254Z,2017-02-26T07:18:48.254Z,0,0,US,False,30294,True
25057,Souths bar and restaurant,273 church street,Mew York City,New York,False,False,Down the stairs,Customers!,40.7184229,-74.0048596,2016-08-27T17:59:58.913Z,2016-08-27T17:59:58.913Z,234,1,US,False,25057,True
31293,Clarkstown North High School,151 Congers Road,New City,New York,False,False,Inside of the school,Might need ID that you go to the school or a visitors pass.,41.1501447,-73.97008129999999,2017-02-27T12:11:15.762Z,2017-02-27T12:11:15.762Z,0,1,US,False,31293,True
39006,"1 Education Dr, Garden City, NY 11530, USA",1 Education Dr,Garden City,New York,True,True,"Enter Life Sciences building, on the first floor near the student restrooms, the first door on the left, labelled Gender Neutral.","There is a code, it is “0001*”",40.7308129354499,-73.59120723798276,2017-12-13T18:47:04.781Z,2017-12-13T18:47:04.781Z,0,0,US,False,39006,True
25214,etcetera etcetera ,352 W 44th,New York City,NY,True,False,,,40.759259,-73.9911505,2016-09-01T15:01:14.677Z,2016-09-01T15:01:14.677Z,0,0,US,False,25214,True
26203,EN,435 Hudson Street,New York City,NY,True,True,"Through the front door, head to the right toward the bar and the bathroom hallway is on the left toward the end of the bar.","Just walk right in, if questioned, say you're meeting a friend but they aren't there yet.",40.7304988,-74.0072168,2016-11-10T22:16:34.728Z,2016-11-10T22:16:34.728Z,0,0,US,False,26203,True
28875,Bareburger,1370 1st Ave,New York City,NY,False,False,To the right towards the kitchen / register,,40.7684941,-73.95519279999999,2017-02-24T21:13:11.344Z,2017-02-24T21:13:11.344Z,0,0,US,False,28875,True
29206,Drama Book Shop,250 W 40th St,New York City,NY,False,True,,"May or may not be accessible, I can't remember",40.7553463,-73.9897963,2017-02-25T03:16:53.888Z,2017-02-25T03:16:53.888Z,0,3,US,False,29206,True
30306,Comfort Inn lower East Side,154 Madison St.,New York City,NY,True,False,"In basement floor, go into building, down stairs in hallway or elevator, single stall by eating area",Act like you are staying in the hotel,40.712214,-73.992694,2017-02-26T07:52:20.086Z,2017-02-26T07:52:20.086Z,0,0,US,False,30306,True
32281,Jojo's Philosophy Bar and Grill,169 Bleeker St.,New York City,NY,True,False,In the back on the left. ,,40.728919,-74.00017199999999,2017-03-01T04:20:01.434Z,2017-03-01T04:20:01.434Z,0,0,US,False,32281,True
39503,Spoon Table & Bar,40 E 33rd St,New York City ,NY,True,False,,,40.74646389999999,-73.9826459,2018-01-15T21:29:14.331Z,2018-01-15T21:29:14.331Z,0,0,US,False,39503,True
39732,Icahn Stadium ,20 Randall’s Island ,New York City ,NY ,True,True,"2 in the front, one by the dance studio and the other by Programming Office. ","4 single stall bathrooms inside the stadium. If you are coming to Randall’s Island for a festival, concert, and don’t want to use a port-a-potty their are single stall bathrooms indoors. In nyc regardless the law is one can use any gendered bathroom in which they identify best. ",40.7932271,-73.92128579999999,2018-02-01T18:38:39.545Z,2018-02-01T18:38:39.545Z,0,1,US,False,39732,True
44037,Metropolitan Museum of Art,Fifth Avenue and 81st Street,New York City,NY,True,True,,Spacious enough for two of us plus my mom in her wheelchair to get there with room to spare.,40.7783215,-73.9627625,2018-09-14T05:16:02.329Z,2020-04-14T21:27:06.732Z,0,1,US,True,44037,True
44192,Beetle House,308 E 6th St,New York City,NY,False,True,,,40.7269931,-73.98807790000001,2018-09-16T00:19:35.898Z,2020-04-14T21:26:33.319Z,0,0,US,False,44192,True
47594,O’Lunney’s Times Square Pub,W 45th St,New York City,NY,True,True,Toward the back,,40.7591619,-73.988384,2019-02-17T23:44:06.276Z,2019-03-17T01:25:34.007Z,0,0,US,True,47593,True
47596,O’Lunney’s,W 45th St,New York City,NY,True,False,,,40.7591619,-73.988384,2019-02-18T00:17:03.497Z,2019-02-18T00:17:03.521Z,0,1,US,False,47596,True
48260,NYIT-NYC Campus,26 West 61st Street,New York City,NY,True,True,"5 Restrooms in Building. On Floor G, 2, 3, 4, & 5",,40.76999130000001,-73.9830941,2019-03-19T14:23:23.928Z,2019-03-19T14:23:24.025Z,0,0,US,False,48260,True
48261,NYIT-NYC Broadway,1855 Broadway ,New York City,NY,False,True,Behind Library on the first floor,,40.7697345,-73.98250469999999,2019-03-19T14:32:02.769Z,2019-03-19T14:32:03.493Z,0,0,US,False,48261,True
48262,NYIT-NYC Campus 2,33 West 60th street,New York City,NY,True,True,On the First Floor Between Men's and Women's Restrooms.,,40.7696975,-73.9833311,2019-03-19T14:33:48.223Z,2019-03-19T14:33:48.875Z,0,0,US,False,48262,True
48263,NYIT-NYC Campus 3,16 West 61st Street,New York City,NY,True,True,,,40.769824,-73.982923,2019-03-19T14:36:12.415Z,2019-03-19T14:36:12.556Z,0,0,US,False,48263,True
52245,St. James theatre ,W 44th street ,New York city ,NY,False,True,On the bottom floor on the left ,"Bathrooms are gendered but say ""we believe in gender diversity please use the bathroom that best fits your gender or gender identity ",40.7589526,-73.98982560000002,2019-08-29T12:31:55.922Z,2019-08-29T12:31:55.942Z,0,0,US,False,52245,True
52093,Nat,9 City Pl,White Plains,New York,True,True,in front of women’s bathroom,"Single space, no stalls",41.0323568,-73.76562059999999,2019-08-21T22:18:06.033Z,2019-08-21T22:18:06.055Z,0,0,US,True,52093,True
52146,Target,9 City Pl,White Plains,New York,True,True,Near entrance.,,41.0323568,-73.76562059999999,2019-08-24T04:58:36.861Z,2019-08-24T04:58:36.970Z,0,0,US,True,52146,True
35291,Port City Bakery and Café ,209 1st St,Oswego,New York,False,True,,Shares a bathroom with Red Sun next door,43.4558589,-76.510481,2017-05-27T13:40:57.619Z,2017-05-27T13:40:57.619Z,0,0,US,False,35291,True
17033,Nickel City Housing Cooperative: Plankton House,126 Fargo Avenue,Buffalo,New York,False,True,First floor hall,"During Monday night open house potluck hours only, please! 7 PM-9 PM
http://www.nickelcitycoop.org
716-931-9732",42.900564,-78.8883819,2015-04-04T15:47:23.602Z,2015-04-04T15:47:23.602Z,0,0,US,False,17033,True
19175,"32-14 Steinway St, Long Island City, NY 11103, USA",32-14 Steinway St,Queens,New York,True,False,"Caffe Bene - Past the barista bar there are two single stall restrooms, one marked women and one marked male/female. ","Restrooms have keypads on the doors, but they are inactive and obsolete. ",40.758713,-73.919535,2015-11-05T19:38:31.400Z,2015-11-05T19:38:31.400Z,0,1,US,False,19175,True
20541,Center for Career Development,1 South Avenue,Garden City,New York,True,False,,,40.7220719,-73.6506244,2016-03-26T02:41:55.932Z,2016-03-26T02:41:55.932Z,0,0,US,False,20541,True
20542,Earle Hall Honors College,1 South Avenue,Garden City,New York,True,False,Through the wooden double doors and 2nd door to the left on your left,,40.7220719,-73.6506244,2016-03-26T02:43:49.465Z,2016-03-26T02:43:49.465Z,0,0,US,False,20542,True
31112,Falchi Building,31-00 47 Avenue,Long Island City,New York,True,True,"First floor lobby, down the hallway across from the security desk","Public, no purchases required",40.74209,-73.93551579999999,2017-02-27T02:47:57.885Z,2017-02-27T02:47:57.885Z,0,0,US,False,31112,True
31126,Bobby's Spot Nuvo Cafe,4701 Van Dam Street,Long Island City,New York,False,True,"To the left of the register/counter, down short hallway behind the bottled drink fridge/soup display",They seem to be nice about people using it without purchasing something,40.7426423,-73.9337803,2017-02-27T03:01:43.694Z,2017-02-27T03:01:43.694Z,0,0,US,False,31126,True
40312,Gurl Scouts of Nassau County Council,1 ring road west,Garden City,New York,True,False,"First floor right when you walk in, on the right past the elevator, next to women's restroom, there is a simgke stall gender neutral restroom.","Just walk in and pretend you know what you're there for, go to the restroom, and then leave. No one should question you.",40.74048519999999,-73.61655,2018-03-08T23:37:56.210Z,2018-03-08T23:37:56.210Z,0,0,US,False,40312,True
42501,Ashkers Juice Bar,Elmwood Ave.,Buffalo City,New York,False,False,"In the back of the place, on the left",,42.919713,-78.8750644,2018-07-22T01:02:30.597Z,2018-07-22T01:02:30.597Z,0,0,US,False,42501,True
49995,JcPenny,Unnamed Road,Garden City,New York,True,True,Directly to the left of the registers,,40.7382052,-73.612927,2019-05-25T22:42:21.084Z,2019-05-25T22:42:21.189Z,0,1,US,False,49995,True
54236,Partner's Coffee Roasters,Jackson avenue,Long Island City,New York,False,True,In the back on the left before the courtyard,,40.7456276,-73.9460252,2019-11-27T12:20:23.553Z,2020-04-14T21:03:42.004Z,0,0,US,False,54236,True
35465,Los Angeles Airport,"1 World Way, Los Angeles, CA 90045",Los Angeles,California ,True,True,In between gendered restrooms by the baggage claim.,"There is a sign that says ""For all genders""",33.94636260000001,-118.4010845,2017-06-02T08:36:56.023Z,2017-06-02T08:36:56.023Z,0,0,US,True,35465,True
38108,Los Angeles Airport Terminal 2 Gate 21B,Los Angeles Airport,Los Angeles,California ,False,False,,All Genders washroom also a family changeroom. Near the entrance to the Men's washroom but is separate washroom marked family and all genders. ,33.9415889,-118.40853,2017-10-09T18:08:26.243Z,2020-04-14T21:19:43.937Z,0,1,US,True,38108,True
2919,Los Angeles CA,hope street,Los Angeles,CA,False,True,,,34.0545099,-118.2532388,2014-02-02T20:53:12.669Z,2014-02-02T20:53:12.669Z,2,0,US,False,2919,True
46512,CDTech/Public Allies Los Angeles,520 W. 23rd. St.,Los Angeles,CA,True,True,Ring door bell,"Community organization, ring doorbell, staff is friendly.",34.0303796,-118.2738806,2018-12-18T21:14:38.775Z,2018-12-18T21:14:38.798Z,0,0,US,False,46512,True
21556,"Ackerman Union, 308 Westwood Plaza, Los Angeles, CA 90095, USA",Ackerman Union,Los Angeles,California,True,True,"""Floor A"" near the post office and credit union",Single private room. You don't have to buy anything/shop anywhere. ,34.0703825,-118.4442248,2016-04-20T20:54:58.260Z,2016-04-20T20:54:58.260Z,0,0,US,False,21556,True
35219,Youtube Space Los Angeles,12422 W Bluff Creek Dr ,Los Angeles,California ,True,True,,,33.976918,-118.407091,2017-05-22T03:56:20.938Z,2017-05-22T03:56:20.938Z,0,0,US,False,35219,True
42568,Everybody Los Angeles ,1845 N San Fernando Rd,Los Angeles ,CA,True,True,"Back of the gym, in the ungendered locker room",,34.1004416,-118.2350316,2018-07-25T21:03:55.052Z,2018-07-25T21:03:55.052Z,0,1,US,False,42568,True
17819,"5944 Echo Street, Los Angeles, CA 90042, USA",5944 Echo Street,Los Angeles,California,True,False,,,34.109904,-118.188835,2015-06-20T03:48:04.054Z,2015-06-20T03:48:04.054Z,0,1,US,False,17819,True
17820,"5938 Echo Street, Los Angeles, CA 90042, USA",5938 Echo Street,Los Angeles,California,False,False,,,34.109841,-118.188963,2015-06-20T05:55:10.661Z,2015-06-20T05:55:10.661Z,0,3,US,False,17820,True
17986,"8283 Portola Plaza, Los Angeles, CA 90095, USA",8283 Portola Plaza,Los Angeles,California,False,False,,,34.0743105,-118.4401136,2015-07-13T21:14:16.545Z,2015-07-13T21:14:16.545Z,0,0,US,False,17986,True
19774,"840 Childs Way, Los Angeles, CA 90089, USA",840 Childs Way,Los Angeles,California,True,True,"Second floor of Ralph Tutor Campus Center, near elevator/stairs, above Seeds Marketplace",,34.0206416,-118.2865614,2016-01-07T20:54:55.559Z,2016-01-07T20:54:55.559Z,0,0,US,False,19774,True
23148,"1601 Wilshire Blvd, Los Angeles, CA 90017, USA",1601 Wilshire Blvd,Los Angeles,California,False,True,,,34.0556569,-118.270232,2016-06-15T15:39:53.130Z,2016-06-15T15:39:53.130Z,0,0,US,False,23148,True
29026,"21 Bruin Walk, Los Angeles, CA 90095, USA",21 Bruin Walk,Los Angeles,California,True,True,First floor of Counseling and Psychology Services building. ,No need to have an appointment!,34.0710945,-118.4462779,2017-02-25T00:16:54.997Z,2017-02-25T00:16:54.997Z,0,0,US,False,29026,True
38617,"10433 National Blvd, Los Angeles, CA 90034, USA",10433 National Blvd,Los Angeles,California,False,False,"If through store go straight to the back make a left then a right
If through cafe all the way to the back through a door restroom is in the hallway on the left",Don't think you have to pay and they open up at 8 am,34.0291553,-118.4116626,2017-11-12T19:17:16.843Z,2017-11-12T19:17:16.843Z,0,1,US,False,38617,True
39561,"11988 Sunset Blvd, Los Angeles, CA 90049, USA",11988 Sunset Blvd,Los Angeles,California,False,True,In a hidden hallway ish place,,34.0616215,-118.4743216,2018-01-21T03:45:32.870Z,2018-01-21T03:45:32.870Z,0,1,US,False,39561,True
42483,Los Angeles convention center,1201 s. Figueroa st.,Los angeles,CA,False,True,West hall third floor on the right side,,34.0414337,-118.2689545,2018-07-21T09:27:16.335Z,2018-07-21T09:27:16.335Z,0,0,US,False,42483,True
47509,"6268 Hollywood Blvd, Los Angeles, CA 90028, USA",6268 Hollywood Blvd,Los Angeles,California,False,False,if you buy something code is on the reciept,,34.1016,-118.3269758,2019-02-14T21:51:09.907Z,2019-02-14T21:51:09.929Z,0,1,US,False,47509,True
21680,Los Angeles AFB Exchange,483 N Aviation Blvd,El Segundo,CA,False,True,In the food court,"On Los Angeles Air Force Base, must have military ID, appropriate credentials to enter the base",33.9176773,-118.3819605,2016-04-27T19:49:26.720Z,2016-04-27T19:49:26.720Z,0,0,US,False,21680,True
16719,"11811 West Olympic Boulevard, Los Angeles, CA 90064, USA",11811 West Olympic Boulevard,Los Angeles,California,False,True,"First floor. In gallery. Titled ""Everybody's Bathroom"".",Often occupied.,34.0335169,-118.4510742,2015-03-17T19:26:50.770Z,2015-03-17T19:26:50.770Z,0,1,US,False,16719,True
36926,Los Angeles State Historic Park,1245 N Spring St,Los Angeles,CA,True,True,"The building that houses the multipurpose room near the park's south entrance also has about half a dozen unisex, single-stall restrooms.","Restrooms are only open during the park's operating hours and on quiet days, not all the stalls are opened for use.",34.0661743,-118.2342881,2017-08-12T15:56:55.643Z,2017-08-12T15:56:55.643Z,0,0,US,False,36926,True
38728,"6333 W 3rd St, Los Angeles, CA 90036, USA",6333 W 3rd St,Los Angeles,California,False,True,,,34.0719955,-118.360253,2017-11-19T20:45:57.394Z,2017-11-19T20:45:57.394Z,0,1,US,False,38728,True
17257,"3500-3502 South Figueroa Street, Los Angeles, CA 90007, USA",3500-3502 South Figueroa Street,Los Angeles,California,False,False,,Separate men and women restrooms with communal hand wash station,34.0199032,-118.2805194,2015-04-26T23:00:04.445Z,2015-04-26T23:00:04.445Z,0,0,US,False,17257,True
38775,"2311 Cotner Ave, Los Angeles, CA 90064, USA/ Upstairs 2 ",2311 Cotner Ave,Los Angeles,California,False,True,On the upper level next to the stairs ,Multiple single stalls ,34.0374524,-118.4381434,2017-11-24T00:20:23.000Z,2017-11-24T00:20:23.000Z,0,0,US,False,38775,True
53839,"102 E Martin Luther King Jr Blvd, Los Angeles, CA 90011, USA",102 E Martin Luther King Jr Blvd,Los Angeles,California,True,True,Go to office and ask to use the restroom,,34.0107209,-118.273629,2019-11-07T18:00:14.176Z,2019-11-07T18:00:14.319Z,0,0,US,False,53839,True
1877,Staples Center,"1111 S Figueroa St, Los Angeles, CA&#8206;",Los Angeles,CA,False,False,"Staples Center--Between section 23 and 24-- gender neutral",Between ,34.05329,-118.245009,2014-02-02T20:51:41.947Z,2014-02-02T20:51:41.947Z,1,0,US,False,1877,True
39524,Natural History Museum,"900 Exposition Blvd, Los Angeles, CA",Los Angeles,CA,True,True,"There are single-stall restrooms, gender neutral and with changing tables, on every floor of the museum! On Level G, there is one right by the elevators. On Level 1, look in the lobby/foyer. On Level 2, there is one by the Discovery Center and one by the entrance of the Bird Hall.","You have to have general museum admission. As of writing, it is free for L.A. residents from 3-5pm on weekdays. Ask for other discounts, as there are many.",34.0170572,-118.288771,2018-01-17T19:50:16.059Z,2018-01-17T19:50:16.059Z,0,0,US,True,39524,True
6198,Rick's Burgers,"2400 Fletcher Dr, Los Angeles, CA 90039",Los Angeles ,California,False,True,,,34.1059673,-118.2562017,2014-08-07T20:56:24.716Z,2014-08-07T20:56:24.716Z,1,0,United States,False,6198,True
16902,Hot Wings Cafe,"7011 Melrose Ave, Los Angeles, CA 90038",Los Angeles,California,True,True,In the back past the register ,no purchase needed,34.0836657,-118.3431788,2015-03-25T02:53:26.608Z,2015-03-25T02:53:26.608Z,0,0,US,False,16902,True
16903,Hot Wings Cafe,"7011 Melrose Ave, Los Angeles, CA 90038",Los Angeles,California,True,True,In the back past the register ,no purchase needed,34.0836657,-118.3431788,2015-03-25T02:53:27.280Z,2015-03-25T02:53:27.280Z,0,2,US,False,16903,True
19982,Follow Your Heart ,"21825 Sherman Way, Los Angeles, CA 91303",Los Angeles,CA,True,True,"Walk to the back of the store, past the restaurant. Ask a staff member if you can't find it, there are roughly 3 unisex single stall restrooms near their kitchen and warehouse ",,34.201405,-118.6038762,2016-01-28T00:31:32.322Z,2016-01-28T00:31:32.322Z,0,1,US,False,19982,True
22477,Blick Art material ,"7301 Beverly Blvd Los Angeles, CA  90036 ",Los Angeles ,CA,True,True,Upstairs and to your right,,34.0764135,-118.3489073,2016-06-04T16:52:42.110Z,2016-06-04T16:52:42.110Z,0,0,US,False,22477,True
39586,Terminal 5 LAX,Los Angeles International Airport  1 World Way   ,"Los Angeles, California 90045",California ,True,True,There are two bathrooms at this location,Lots of counter space.,,,2018-01-21T13:24:07.878Z,2018-01-21T13:24:07.878Z,0,1,US,False,39586,True
19099,Dallas,mpUzylpYfuaLjvjXRc,New York,NY,False,False,"What university do you go to? <a href="" http://www.cimoszewicz.eu/?list-of-erectile-dysfunction-medications-walmart.pptx#post "">erectile dysfunction treatment medicine in homeopathy</a>  In May, Chevedden put on a suit and took the Los Angeles subway to the annual shareholdersmeeting at DreamWorks Animation SKG. There, the Hollywood studio's Chief ExecutiveJeffrey Katzenberg and Chairman Mellody Hobson - about to marry Star Wars creator George Lucas -walked across the room to say hello to Chevedden.
 ","What university do you go to? <a href="" http://www.cimoszewicz.eu/?list-of-erectile-dysfunction-medications-walmart.pptx#post "">erectile dysfunction treatment medicine in homeopathy</a>  In May, Chevedden put on a suit and took the Los Angeles subway to the annual shareholdersmeeting at DreamWorks Animation SKG. There, the Hollywood studio's Chief ExecutiveJeffrey Katzenberg and Chairman Mellody Hobson - about to marry Star Wars creator George Lucas -walked across the room to say hello to Chevedden.
 ",40.7127753,-74.0059728,2015-10-27T23:15:49.699Z,2020-04-14T21:12:30.630Z,0,0,BB,False,19099,True
18653,The Village Bakery and Cafe,3119 Los Feliz Blvd,Los Angeles,Ca,True,True,,,34.1243695,-118.2673299,2015-09-09T20:29:59.727Z,2015-09-09T20:29:59.727Z,0,0,US,False,18653,True
21256,Spring Street Smokehouse,"638 1/2 N Spring St, Los Angles, CA ",Los Angeles,California,True,False,,"2 gender-neutral, single-occupancy restrooms",34.0583884,-118.238462,2016-04-10T01:36:51.960Z,2016-04-10T01:36:51.960Z,13,2,US,False,21256,True
34750,Del Taco,3020 Los Feliz Blvd,Los Angeles,California,True,True,Two restrooms at the back of the restaurant,,34.1250019,-118.2651444,2017-05-02T20:22:10.244Z,2017-05-02T20:22:10.244Z,0,0,US,False,34750,True
19261,Center WeHO,8745 Santa Monica Blvd. 2nd Floor,west Hollywood,ca,True,True,,Part of the Los Angeles LGBT Center. ,34.086777,-118.3814627,2015-11-14T03:06:40.722Z,2015-11-14T03:06:40.722Z,0,0,US,False,19261,True
23749,Silverlake Ramen,"Silverlake Ramen 2927 W Sunset Blvd, Los Angeles, CA  90026, United States",Silverlake ,California ,True,True,at the far right behind a wall,i think don't you have to be a paying customer. but the food there is awesome ,36.778261,-119.4179324,2016-07-01T18:43:13.114Z,2016-07-01T18:43:13.114Z,67,3,US,False,23749,True
23852,Trader Joes,"1000 Glendon Ave, Los Angeles, CA 90024",Westwood ,California,True,True,in the back by the samples there are two gender neutral single stall bathrooms :-),,34.0623676,-118.4438855,2016-07-06T08:43:15.609Z,2016-07-06T08:43:15.609Z,0,0,US,False,23852,True
33393,Petco,742 New Los Angeles Ave,Moorpark ,CA,True,True,Back of the store,,34.2779289,-118.8698361,2017-04-01T01:35:29.952Z,2017-04-01T01:35:29.952Z,0,0,US,False,33393,True
43184,Arby's,1408 Los Angeles Ave. ,Simi Valley,California,True,True,Turn right immediately when walking in. ,It has the genderqueer person symbol!!,34.2713288,-118.771798,2018-08-24T03:05:46.953Z,2020-04-14T21:24:51.555Z,0,1,US,False,43184,True
418,Griffith Park @ Shane's Inspiration,4800 Crystal Springs Drive,LOS ANGELES,CA,True,True,Follow directions to the Merry-Go-Round. Drive past the Merry-Go-Round to the farthest parking lot. It's to the North of the parking lots.,"10 stalls, 4 accessible ones. Griffith Park is very popular. They can get overused and dirty on the weekends.",34.1181,-118.2726,2014-02-02T20:49:35.347Z,2014-02-02T20:49:35.347Z,1,1,US,False,418,True
701,Coffee Bean & Tea Leaf,8500 Beverly Blvd # 606,LOS ANGELES,CA,False,True,,,34.075966,-118.376765,2014-02-02T20:49:59.817Z,2014-02-02T20:49:59.817Z,1,0,US,False,701,True
1246,Century Plaza Towers,2049 Century Park East,Los Angeles,CA,True,True,On D level (one below street) take escalator down from the lobby and then keep right until you see the restroom signs.   It is before the gendered bathrooms.,Open 24 hours.  No on street parking.  Security may ask for ID before going down to D level.  If you park in the building there is no problem but it's very expensive to park for very long.,34.059325,-118.412914,2014-02-02T20:50:45.693Z,2014-02-02T20:50:45.693Z,1,1,US,False,1246,True
1290,Nova Express,426 N Fairfax Ave,Los Angeles,CA,True,True,Single locking stall genderfree bathroom in the back of the restaurant.,"Hours of operation: 7pm to 2am Sunday-Tuesday-Wednesday 7pm-3am Thursday 7pm-4am Friday and Saturday (closed Mondays)The food is a bit expensive (cheapest thing on menu is ~$8), but very good, especially the pizza.  If you're a sci-fi / comics geek the place is a must-visit due to the internal decor.",34.0790696,-118.3611374,2014-02-02T20:50:49.421Z,2014-02-02T20:50:49.421Z,1,0,US,False,1290,True
1306,The Sandwich Joint,1068 W. 7th St.,Los Angeles,CA,False,True,"When you go in, turn slightly to your left, past the tables, past the counter.","Mon - Fri:8:00 am - 8:00 pmSat:10:00 am - 5:00 pm(213) 623-5300They tend to have fun local art on the walls and the guy who runs it seems pretty down to earth.http://www.facebook.com/pages/Los-Angeles-CA/the-Sandwich-Joint/164325524655",34.050451,-118.263451,2014-02-02T20:50:50.737Z,2014-02-02T20:50:50.737Z,1,1,US,False,1306,True
1683,Coffee Bean & Tea Leaf,7915 W Sunset Blvd,Los Angeles,CA,True,True,,,34.098184,-118.361949,2014-02-02T20:51:25.241Z,2014-02-02T20:51:25.241Z,1,0,US,False,1683,True
1742,Pitfire Pizza,2018 Westwood Blvd,Los Angeles,CA,False,False,"Single-floor restaurant, simple lay-out. Single-stall restrooms are at the back, past the counters, on the right. Not sure if purchase is expected, but you don't need a key. Unsure about accessibility specifics, but appeared accessible.",310-481-9860,34.0465472,-118.4336012,2014-02-02T20:51:30.627Z,2014-02-02T20:51:30.627Z,1,0,US,False,1742,True
1839,Starbucks Coffee,4700 W Pico Blvd # B,Los Angeles,CA,False,False,"From the Pico entrance, counter is on your right & restrooms are in the rear on the left.From the parking lot entrance, counter is on your left & restrooms are on your right.","Doors require 4-digit code to open, which all the baristas know.(323) 936-5032",34.0485834,-118.3384321,2014-02-02T20:51:38.994Z,2014-02-02T20:51:38.994Z,1,0,US,False,1839,True
1840,Starbucks Coffee,4177 W Washington Blvd,Los Angeles,CA,False,False,"From the front door, head straight back. Restrooms are on your left in the quasi-hall.",(323) 734-0281,34.04017,-118.3304998,2014-02-02T20:51:39.119Z,2014-02-02T20:51:39.119Z,2,0,US,False,1840,True
1880,LA Gay & Lesbian Center,1125 N. McCadden Pl,Los Angeles,CA,True,True,"First floor.  Business hours: 6 - 10pm M-F, 9 - 5pm Saturdays. Closed Sundays.","Business hours: 6 - 10pm M-F, 9 - 5pm Saturdays. Closed Sundays.",34.0918278,-118.337561,2014-02-02T20:51:42.213Z,2014-02-02T20:51:42.213Z,1,0,US,False,1880,True
1881,LA Gay & Lesbian Center,1265 N. Schrader Blvd,Los Angeles,CA,False,True,Implementation in process.  Ask security desk for floor.  ,,34.0980057,-118.3324685,2014-02-02T20:51:42.301Z,2014-02-02T20:51:42.301Z,1,2,US,False,1881,True
1887,Joey's Cafe,8301 Santa Monica Blvd,Los Angeles,CA,False,True,From the front door the counter is in front of you. Follow the counter back to the right and the bathroom will be on your right just before the kitchen.,"(323) 822-0671&#8206;8am - 10pm",34.090976,-118.370531,2014-02-02T20:51:43.227Z,2014-02-02T20:51:43.227Z,1,0,US,False,1887,True
1902,Akbar,4356 Sunset Blvd,Los Angeles,CA,False,True,"There was no availability in the pull-down menu that reflected the actual status of Akbar, so I tried something close. It's free access if you come at a time when cover isn't being charged, which completely depends on the day & time.It's a gay bar with a drag/burlesque/genderf*ck night. You can just ask someone where the bathroom is.","323-665-6810http://www.akbarsilverlake.com/home.html",34.095565,-118.284038,2014-02-02T20:51:43.819Z,2014-02-02T20:51:43.819Z,1,0,US,False,1902,True
1915,university of southern california,699 Exposition blvd,Los Angeles,CA,False,True,,,34.0183198,-118.28359,2014-02-02T20:51:44.861Z,2014-02-02T20:51:44.861Z,1,1,US,False,1915,True
1989,Coffee Bean & Tea Leaf,3800 Wilshire Blvd,Los Angeles,CA,False,False,,(213) 388-9763,34.061409,-118.3092229,2014-02-02T20:51:50.115Z,2014-02-02T20:51:50.115Z,1,0,US,False,1989,True
1990,Pho 21,432 E 2nd St,Los Angeles,CA,False,False,Past the counter towards the back dining area.,"You will want to ask before using this restroom.(213) 620-0513&#8206;",34.046934,-118.238755,2014-02-02T20:51:50.261Z,2014-02-02T20:51:50.261Z,1,0,US,False,1990,True
1991,Pinkberry,332 E 2nd St,Los Angeles,CA,False,True,"Right of the counter, on the far side of the room.",(213) 621-7645,34.0489027,-118.2413341,2014-02-02T20:51:50.400Z,2014-02-02T20:51:50.400Z,1,0,US,False,1991,True
1993,Cafe Jack,508 S Western Ave,Los Angeles,CA,False,False,"From the parking lot, enter at the main counter. Bathrooms are to your left.","(213) 365-8882It may be difficult to see this cafe from the street. It looks like a ship.",34.06498,-118.308702,2014-02-02T20:51:50.657Z,2014-02-02T20:51:50.657Z,1,0,US,False,1993,True
2167,Hamburger Haven,8954 Santa Monica Blvd.,Los Angeles,CA,True,True,"It's past the ordering counter, on the side away from the covered eating area.","Tasty burgers, too!",34.0834352,-118.385721,2014-02-02T20:52:06.455Z,2014-02-02T20:52:06.455Z,1,0,US,False,2167,True
2168,Groundwork Coffee Company,1501 Cahuenga Blvd.,Los Angeles,CA,False,True,Towards the back.,,34.09830000000001,-118.329753,2014-02-02T20:52:06.584Z,2014-02-02T20:52:06.584Z,1,0,US,False,2168,True
2528,The Vegan House,2703 West Sunset Boulevard,Los Angeles,CA,False,True,"Enter, order something delicious. Head into the main dining area and the restrooms are in the small hallway in the back.","I'm nearly 100% positive that they are gender neutral. I recall there only being on restroom, and it's single and locking.",34.080829,-118.27046,2014-02-02T20:52:33.965Z,2014-02-02T20:52:33.965Z,1,0,US,False,2528,True
2653,Stories Books and Cafe,1716 West Sunset Boulevard ,Los Angeles,CA,False,True,"If you enter from Sunset Blvd, go toward the back where the cafe is.  Pass the counter to you left, almost to the back door is the bathroom.","http://www.storiesla.com/STORE HOURSMon - Thur 8:30am - 8pmFri & Sat 8:30am - 10pmSunday 10am - 8pmCall us: (213) 413-3733They also host a queer literary open mic once a month.",34.07722,-118.258761,2014-02-02T20:52:43.264Z,2014-02-02T20:52:43.264Z,1,0,US,False,2653,True
2729,Sunmoon Urgent Care,1161 1/2 Logan St,Los Angeles,CA,False,True,It's inside the door to the rest of the clinic. ,"If you're a patient there, you can definitely use the bathroom. I don't know if they'd let you use it if you're not a patient. You can always claim to be one  of Dr. Xia Li's patients since they get such high turnover. (213) 484-1289",34.076015,-118.259169,2014-02-02T20:52:51.811Z,2014-02-02T20:52:51.811Z,1,0,US,False,2729,True
2783,Tribal Cafe,1651 West Temple Street ,Los Angeles,CA,False,True,"From Temple Street, walk to the very back past the counter. It will be the last door on the lest.","This is a community-oriented restaurant whose very nice owner, Josh, offers lots of veggie options. Free wi-fi.(213) 483-4458",34.068485,-118.262489,2014-02-02T20:52:57.968Z,2014-02-02T20:52:57.968Z,1,2,US,False,2783,True
3063,usc norris,1441 eastlake ave,Los Angeles,CA,False,True,"Enter the lobby. Take a left,turn right at the conference room. The hallway you enter has two gender neutral bathrooms.",,34.062002,-118.204692,2014-02-02T20:53:29.594Z,2014-02-02T20:53:29.594Z,1,0,US,False,3063,True
3132,Pazzo Gelato,3827 W Sunset Blvd,Los Angeles,CA,False,True,"Facing the storefront, go in through the door on the right. continue past the counter, turn left into a small walkway, and the bathroom will be in front of you.","(323) 662-1410Sun-Thurs 11am -11pmFri, Sat 11 am -12amhttp://pazzogelato.net/Their delicious desserts have many vegan options!",34.0916898,-118.279471,2014-02-02T20:53:34.109Z,2014-02-02T20:53:34.109Z,1,0,US,False,3132,True
3188,The Warehouse,1197 W Sunset Blvd,Los Angeles,CA,False,True,"It's a vintage/local designer clothing store. Turn right at the entrance. Door will be in front of you near the corner with the close wall.","Tues-Sun, 11am-8pmhttp://thewarehousela.com/(213) 975-0035",34.068022,-118.250135,2014-02-02T20:53:37.899Z,2014-02-02T20:53:37.899Z,1,0,US,False,3188,True
3300,Du-Par's Restaurant & Bakery,12036 Ventura Blvd ,Los Angeles,CA,False,False,"There are restrooms toward the front, and on the second floor towards the back.",,34.1710549,-118.5421722,2014-02-02T20:53:46.498Z,2014-04-13T01:25:46.677Z,1,0,US,False,3300,True
3421,Natural History Museum,900 Exposition Blvd,Los Angeles,CA,False,True,,,34.018143,-118.289135,2014-02-02T20:53:57.895Z,2014-02-02T20:53:57.895Z,3,3,US,False,3421,True
3505,El Mirador,Soda building,Los Angeles,0,False,True,Green soda building. You'll spot it while driving through town. Bathroom outside on left side of building,Not sure if owners would mind non-customers using it,10.0804014,-84.245969,2014-02-02T20:54:06.435Z,2014-02-02T20:54:06.435Z,1,0,CR,False,3505,True
4063,Holmby Park,583 Comstock Ave,Los Angeles,CA,True,True,"in Holmby Park, if you drive S Beverly Glen Blvd amd get to intersection with Comstock, turn onto it and then you'll see it in the park","2 gender-neutral, accessible, locking rooms on a side of restrooms building, they have water, relatively clean but sometimes may miss toilet paper. Notice says restrooms close at 5PM. I found 1 restroom to be always locked, so it's apparently only one room working.",34.0718274,-118.4296758,2014-02-02T20:55:04.594Z,2014-02-02T20:55:04.594Z,1,0,US,False,4063,True
4265,Next to Pershing Square Metro Station,300 West 5th St.,Los Angeles,CA,True,True,On the street on West 5th St. between Hill and Broadway,,34.04815,-118.25083,2014-02-02T20:55:27.700Z,2014-02-02T20:55:27.700Z,1,67,US,False,4265,True
4818,Intelligentsia Coffee,3922 W. Sunset Blvd,Los Angeles,CA,True,False,straight to the back of the store,"don't have to be a paying customer, can just walk straight back. there is often a line since it's a single stall",34.0921571,-118.2802493,2014-02-10T23:07:01.072Z,2014-02-10T23:07:01.072Z,1,0,United States,False,4818,True
4913,Bricks and Scones,403 N Larchmont Blvd,Los Angeles,California,False,False,In the back of store.  There's two private restrooms there.,Ph# (323) 463-0811.  Coffee Store with lots of tables.,34.077686,-118.323998,2014-02-13T02:25:08.395Z,2014-02-13T02:25:08.395Z,1,1,USA,False,4913,True
5222,Starbucks,7901 Santa Monica Blvd #107,Los Angeles,CA,True,True,,Have to be a paying customer.,34.0909549,-118.3617863,2014-03-20T23:29:02.715Z,2014-03-20T23:29:02.715Z,1,0,United States,False,5222,True
5223,Whole Foods,7871 Santa Monica Blvd,Los Angeles,CA,True,True,"At the front of the store on the right, past the seating area.",,34.09088,-118.3609407,2014-03-21T03:03:32.293Z,2014-03-21T03:03:32.293Z,1,0,United States,False,5223,True
16597,Local,2943 Sunset Blvd,los Angeles,CA,False,True,"Back, behind the tables.",Very chill place. Cool people. Only open till 3pm.,34.0837422,-118.2737959,2015-03-13T00:23:33.959Z,2015-03-13T00:23:33.959Z,0,0,US,False,16597,True
16698,Meltdown Comics,7522 Sunset,Los Angeles,CA,True,True,Back right corner of store. Key located at front desk. ,,34.0978181,-118.3535229,2015-03-16T17:12:28.997Z,2015-03-16T17:12:28.997Z,0,0,US,False,16698,True
16727,Smart & Final Extra ,4550 W Pico Blvd ,Los Angeles ,CA,True,False,,It's a Safe place I always using  their restroom and I'm an employee their I'm a transgender woman :) ,34.0484527,-118.3358682,2015-03-18T04:34:13.148Z,2015-03-18T04:34:13.148Z,0,1,US,False,16727,True
16729,8 Espressos,11901 Santa Monica Blvd. Suite 112,Los Angeles,CA,True,True,"Towards the back, no key or purchase needed ",,34.0422489,-118.4607088,2015-03-18T05:36:38.157Z,2015-03-18T05:36:38.157Z,0,2,US,False,16729,True
16730,CHIRLA ,2533 W. 3rd St,Los Angeles,CA,True,True,"Front door is wheelchair accessible, bathrooms are down the hallway to the right and then a left. ","No key usually needed, if locked ask Legal department for key or CHIRLA receptionist ",34.0653684,-118.2771571,2015-03-18T05:44:26.586Z,2015-03-18T05:44:26.586Z,0,1,US,False,16730,True
16731,Coalition for Humane Immigrant Rights of LA (CHIRLA),2533 W. 3rd St,Los Angeles,CA,True,True,"From 3rd st entrance, down the hallway to the right and then left.",No key needed,34.0653684,-118.2771571,2015-03-18T06:05:17.585Z,2015-03-18T06:05:17.585Z,0,1,US,False,16731,True
17523,Erewhon market ,7660 W Beverly Blvd,Los Angeles,CA,True,True,Corner of store by prepared foods,Must get code from cashier,34.0755435,-118.3569403,2015-05-23T21:21:15.461Z,2015-05-23T21:21:15.461Z,0,0,US,False,17523,True
18163,Delia's Restaurant,4501 York Blvd,Los Angeles‎,CA,True,True,Ask any of the friendly staff at the counter and they will have you go around to the back by the kitchen to a single unmarked bathroom.,Fantastic Mexican food! Been going here for well over a year and a total gem. Dirt cheap prices for food that's made fresh and the nicest family I've ever met running a restaurant. Loved by all and right near Occidental College.,34.12381,-118.2181325,2015-08-02T22:14:43.786Z,2015-08-02T22:14:43.786Z,0,0,US,False,18163,True
18164,Delia's Restaurant,4501 York Blvd,Los Angeles‎,CA,True,True,Ask any of the friendly staff at the counter and they will have you go around to the back by the kitchen to a single unmarked bathroom.,Fantastic Mexican food! Been going here for well over a year and a total gem. Dirt cheap prices for food that's made fresh and the nicest family I've ever met running a restaurant. Loved by all and right near Occidental College.,34.12381,-118.2181325,2015-08-02T22:14:44.706Z,2015-08-02T22:14:44.706Z,0,0,US,False,18164,True
18171,Milk,7290 Beverly Blvd,Los Angeles,CA,True,True,Walk straight from the entrance to the back room.,You have to be a paying customer,34.0758712,-118.3484353,2015-08-03T14:54:21.855Z,2015-08-03T14:54:21.855Z,0,0,US,False,18171,True
18293,Against the Stream Buddhist Meditation Society,4300 Melrose Ave,Los Angeles,Ca,False,True,Back of the center to the right to single - one room toilet,i have attended events here and it is quite welcoming and safe for all.,34.0834536,-118.2942061,2015-08-08T15:53:14.000Z,2015-08-08T15:53:14.000Z,0,1,US,False,18293,True
18310,Alchemy Tattoo,2854 W Sunset Blvd,Los Angeles ,California,False,False,,,34.0826153,-118.2732089,2015-08-10T02:50:24.855Z,2015-08-10T02:50:24.855Z,0,0,US,False,18310,True
18311,Alchemy Tattoo,2854 W Sunset Blvd,Los Angeles ,California,False,False,,,34.0826153,-118.2732089,2015-08-10T02:50:25.039Z,2015-08-10T02:50:25.039Z,0,0,US,False,18311,True
18378,Sunset grill,7439 Sunset Boulevard,Los Angeles,California,False,True,,,34.0982169,-118.3522348,2015-08-14T21:32:10.704Z,2015-08-14T21:32:10.704Z,0,0,US,False,18378,True
18402,Snow Station,2112 Colorado Boulevard,Los Angeles,California,False,False,,,34.1389228,-118.2124652,2015-08-16T21:36:32.876Z,2015-08-16T21:36:32.876Z,0,0,US,False,18402,True
18654,The Coffee Bean & Tea Leaf,"2081 Hillhurst Ave, ",Los Angeles,Ca,True,False,,,34.109824,-118.2878521,2015-09-09T20:32:49.830Z,2015-09-09T20:32:49.830Z,0,1,US,False,18654,True
18655,Froyo Life,"1924 Hillhurst Ave, ",Los Angeles,Ca,True,True,,,34.1061928,-118.2871442,2015-09-09T20:35:47.495Z,2015-09-09T20:35:47.495Z,0,0,US,False,18655,True
18724,Lassens Natural Foods & Vitamins,2080 Hillhurst Ave,Los Angeles,Ca,True,True,,,34.1097388,-118.2870732,2015-09-17T17:55:32.148Z,2015-09-17T17:55:32.148Z,0,0,US,False,18724,True
19263,The Golden State,426 N Fairfax Ave,Los Angeles,CA,False,True,,,34.0790536,-118.3611354,2015-11-14T21:35:38.758Z,2015-11-14T21:35:38.758Z,0,0,US,False,19263,True
19651,Mr. Baguette Vietnamese Restaurant,"404 S Figueroa St, Suite 602",Los Angeles,CALIFORNIA,False,True,"The restaurant is on the sixth floor of the Bonaventure Hotel, in a mini-mall setup. Follow the escalators or elevator up to the 6th floor, then follow signs for Mr. Baguette. It's a fastfood-style restaurant, pretty open and empty most of the time. The restroom is to the right of the ordering counter.

Mon	8:00 am - 3:00 pm	
Tue	8:00 am - 3:00 pm	
Wed	8:00 am - 3:00 pm	
Thu	8:00 am - 3:00 pm	
Fri	8:00 am - 3:00 pm	
Sat	Closed	
Sun	Closed",,34.0525715,-118.2560081,2015-12-20T05:33:21.090Z,2015-12-20T05:33:21.090Z,0,0,US,False,19651,True
19752,Holy Grounds Cafe,5371 Alhambra Avenue,Los Angeles,CA,True,True,,,34.0768872,-118.1687995,2016-01-04T01:25:56.745Z,2016-01-04T01:25:56.745Z,0,0,US,False,19752,True
19753,Cha Cha Chili,4625 Valley Blvd,Los Angeles,CA,True,True,,,34.0628343,-118.1832737,2016-01-04T01:30:31.594Z,2016-01-04T01:30:31.594Z,0,0,US,False,19753,True
19797,Paris Baguette,125 N Western Ave,Los Angeles,CA,True,True,,,34.073801,-118.3091534,2016-01-11T07:15:29.146Z,2016-01-11T07:15:29.146Z,0,0,US,False,19797,True
19841,The Grain Cafe,4222 West Pico Boulevard,Los Angeles,CA,False,True,"Through the silver door, under the ""restroom"" sign, door to the left.","They've got a ""no public restroom"" sign on the front door, so probably best to be a customer.",34.0474527,-118.3277522,2016-01-16T23:59:37.327Z,2016-01-16T23:59:37.327Z,0,0,US,False,19841,True
19983,Mexikosher,8832 West Pico Boulevard,Los Angeles,CA,True,True,In back of restaurant ,,34.0547126,-118.3845886,2016-01-28T00:34:24.654Z,2016-01-28T00:34:24.654Z,0,0,US,False,19983,True
19992,Otis College of Art and Design ,9045 Lincoln blvd,Los Angeles ,California ,True,True,"Building labeled Ahmanson, lower level. ",It's a college so just act like you belong. ,33.95667340000001,-118.4169583,2016-01-28T04:28:32.971Z,2016-01-28T04:28:32.971Z,0,0,US,False,19992,True
20339,Sabor Y Cultura,5625 Hollywood Blvd,Los Angeles,CA,True,False,"In the back, at the end of the hallway, by the parking lot door. ",You have to get a key from the cafe cashier. ,34.101867,-118.3124206,2016-02-13T17:13:19.872Z,2016-02-13T17:13:19.872Z,0,0,US,False,20339,True
20385,Ozero,131 Central Ave,Los Angeles,CA,True,True,Back of the shop,Must be a customer,34.048289,-118.2395445,2016-03-24T23:34:27.108Z,2016-03-24T23:34:27.108Z,7,1,US,False,20385,True
20557,Kaiser Permanente Endocrinology,4950 Sunset Blvd. ,Los Angeles ,CA,True,True,Second floor,"Open to the public, no appointment or check in required.",34.0977613,-118.2977728,2016-03-26T07:19:03.597Z,2016-03-26T07:19:03.597Z,0,0,US,False,20557,True
20795,Naab Café,1273 Westwood Blvd,Los Angeles,California,False,True,Locking single user,,34.0572845,-118.4432275,2016-03-29T00:23:47.917Z,2016-03-29T00:23:47.917Z,0,0,US,False,20795,True
20902,USC Robert Zemeckis Center,3131 S Figueroa St,Los Angeles,California,True,True,"Entering the front door of the building: the first hallways on the right has a series of bathrooms, water fountains, changing rooms, and an All Gender Restroom.","Mostly open to students and faculty, but honestly, you can walk right in and use the bathroom. No one will ask to see a student ID.",34.0240803,-118.2795302,2016-03-30T18:28:28.205Z,2016-03-30T18:28:28.205Z,0,0,US,False,20902,True
20965,"10865 Sepulveda Blvd, Mission Hills, CA 91345, USA",10865 Sepulveda Blvd,Los Angeles,California,True,False,"Walk into the KFC, the bathroom is to the right beyond the trash bins. Step in through the door, and then to your right.",It should be fine to just walk in.,34.2678504,-118.4676491,2016-04-01T01:37:58.991Z,2016-04-01T01:37:58.991Z,0,0,US,False,20965,True
21767,Love Laundry,5960 W Pico Blvd,Los Angeles,CA,True,True,Back of store,Laundry customers only ,34.0516955,-118.3697033,2016-05-01T17:36:25.673Z,2020-04-14T21:13:43.642Z,0,0,US,False,21767,True
22191,Nerdist Showroom,7522 Sunset Boulevard,Los Angeles,CA,False,True,By the back on the right. ,"Browse, ask some questions, be friendly, or buy a $1 comic book. Won't be an issue.",34.0978181,-118.3535229,2016-05-20T18:52:50.768Z,2016-05-20T18:52:50.768Z,0,1,US,False,22191,True
22220,Rite aid,6726 W Sunset Blvd,Los Angeles,CA,False,False,,,34.0975645,-118.3375244,2016-05-22T02:01:10.277Z,2016-05-22T02:01:10.277Z,0,0,US,False,22220,True
22253,Nordstoroms at the grove ,189 the grove dr,Los Angeles ,ca ,True,True,2nd floor near the elevator in women's department ,,34.0724615,-118.3580995,2016-05-23T19:03:19.288Z,2016-05-23T19:03:19.288Z,0,1,US,False,22253,True
22380,Starbucks ,3242 Cahuenga Blvd W  CA  90068 ,los angeles,CA,True,True,One bathroom both male and female,,34.1299039,-118.3487972,2016-05-28T23:27:07.761Z,2016-05-28T23:27:07.761Z,0,1,US,False,22380,True
22381,Starbucks,3242 Cahuenga Blvd W ,Los Angeles,CA,True,True,Single stall male and female,,34.1299039,-118.3487972,2016-05-28T23:29:13.466Z,2016-05-28T23:29:13.466Z,0,0,US,False,22381,True
22640,Taco spot ,2006 Colorado blvd,Los angeles,CA,True,True,By the back door,,34.1389526,-118.2108488,2016-06-12T00:44:58.591Z,2016-06-12T00:44:58.591Z,0,0,US,False,22640,True
23271,Kaiser Permanente ,1550 W Manchester Ave,Los Angeles,California ,True,True,,Three restrooms in the medical center,33.9596954,-118.30437,2016-06-16T23:15:02.670Z,2016-06-16T23:15:02.670Z,0,2,US,False,23271,True
23367,Arco Gas station ,1255 N Highland Ave,los angeles ,CA ,True,True,Right next to the register,,34.0942448,-118.3389881,2016-06-18T23:30:00.492Z,2016-06-18T23:30:00.492Z,0,1,US,False,23367,True
23368,Home goods,8621 S Sepulveda Blvd ,Los Angeles ,CA,True,True,At the back of the store to your left. Two separate bathrooms gender neutral. ,,33.959157,-118.396667,2016-06-18T23:33:31.240Z,2016-06-18T23:33:31.240Z,0,2,US,False,23368,True
23531,"Canoga Park, CA 91303, USA",Canoga Park,Los Angeles,California,True,True,it should be right across the store when you walk in :),,34.208254,-118.6058609,2016-06-24T01:04:45.763Z,2016-06-24T01:04:45.763Z,0,1,US,False,23531,True
23595,Arthur Ashe Student Health and Wellness Center,221 Westwood Plaza,Los Angeles,California,True,True,"4th Floor of the Ashe Center, right by the main entrance","The Ashe Center is attached to the John Wooden recreation center. The geotag based on the address may not be exactly correct, as the center is on the East side of the building and has its own separate access from Bruin Plaza",34.071726,-118.445317,2016-06-26T01:48:50.006Z,2016-06-26T01:48:50.006Z,0,0,US,False,23595,True
23905,Young Research Library,Charles E. Young Research Library,Los Angeles,CA,True,True,,,34.074971,-118.4414384,2016-07-08T20:33:49.922Z,2016-07-08T20:33:49.922Z,0,0,US,False,23905,True
24030,Natural History Museum ,801-899 Exposition Park Dr,Los Angeles,California,False,True,,One stall has lock by the main entrance ,34.0154668,-118.2894084,2016-07-14T19:39:41.593Z,2016-07-14T19:39:41.593Z,0,1,US,False,24030,True
24176,Occidental College - Collins House,1600 Campus Road,Los Angeles,CA,True,True,"4 gender inclusive, single-occupancy restrooms
2 each on 1st and 2nd floor",,34.129581,-118.210692,2016-07-20T23:11:23.654Z,2016-07-20T23:11:23.654Z,0,0,US,False,24176,True
24177,Occidental College - Intercultural Community Center,1501 Campus Road,Los Angeles,CA,True,True,"2 gender-inclusive, single-occupancy restrooms
One each on 1st on 2nd floors",,34.1248547,-118.2115997,2016-07-20T23:36:55.632Z,2016-07-20T23:36:55.632Z,0,1,US,False,24177,True
24178,Occidental College - Emmons Wellness Center,1600 Campus Road,Los Angeles,CA,False,True,"4 gender-inclusive, single-occupancy restrooms","Health and Wellness Center on campus. North of Arthur G. Coons Administrative Building
East of Haines Hall
South of Stearns Hall",34.129581,-118.210692,2016-07-20T23:40:34.460Z,2016-07-20T23:40:34.460Z,0,1,US,False,24178,True
24191,Einstein Bagels,5550 Wilshire Blvd,Los Angeles ,Ca,True,False,,Friendly employees don't mind you using the bathroom even if you do not purchase anything. Safe and comfortable :),34.0620879,-118.3500722,2016-07-21T14:31:42.332Z,2016-07-21T14:31:42.332Z,0,0,US,False,24191,True
24192,Rite Aid,5575 Wilshire Blvd,Los Angeles ,Ca,True,False,,You don't have to be a paying customer ,34.0626902,-118.350088,2016-07-21T14:33:21.196Z,2016-07-21T14:33:21.196Z,0,0,US,False,24192,True
24193,Which Wich,5600 Wilshire Blvd,Los Angeles ,Ca,True,True,,You don't need to be a paying customer :),34.061504,-118.351288,2016-07-21T14:34:06.061Z,2016-07-21T14:34:06.061Z,0,0,US,False,24193,True
24196,Occidental College - Johnson Hall,"Johnson Hall, Emmons Road",Los Angeles,CA,True,True,"1 gender-inclusive, single-occupancy restroom
4th floor",Wheelchair accessible entrance on backside of building. Elevators are through that entrance and around the corner to the left.,34.1275568,-118.2107017,2016-07-21T19:24:34.016Z,2016-07-21T19:24:34.016Z,0,1,US,False,24196,True
24199,Starbucks,14622 Ventura Blvd,Los Angeles,California,False,True,Back of the café,Must be a customer. Act as if you are buying something.,34.1511629,-118.4522043,2016-07-21T21:37:57.162Z,2016-07-21T21:37:57.162Z,0,1,US,False,24199,True
24344,Murphy Hall,607 Charles E Young Drive,Los Angeles,California,False,True,"Take west elevator to 3rd floor, down hall to left-- room number 3124","There is no men's gendered restroom on this floor, so many men in the offices use it.",34.0709116,-118.4395398,2016-07-29T23:18:55.182Z,2016-07-29T23:18:55.182Z,0,1,US,False,24344,True
24432,UCLA Brain Research Institute (E5-6) within the School of Medicine,695 Charles E Young Dr S,Los Angeles,California,False,True,Locations in Rooms: B3394 and B3396,,34.0673947,-118.4444236,2016-08-01T21:07:41.517Z,2016-08-01T21:07:41.517Z,0,0,US,False,24432,True
24433,UCLA Bunche Hall,11282 Portola Plaza,Los Angeles,California,False,True,"Locations in Rooms: 3253, 3257, 4251, 4350, & 8253",,34.0741507,-118.4400738,2016-08-01T21:09:17.091Z,2016-08-01T21:09:17.091Z,0,0,US,False,24433,True
24434,UCLA Campbell Hall,335 Portola Plaza,Los Angeles,California,False,True,"Locations in Rooms: 1108, 1114",,34.0738602,-118.4413171,2016-08-01T21:12:32.417Z,2016-08-01T21:12:32.417Z,0,0,US,False,24434,True
24435,UCLA California Nano Systems Institute,570 Westwood Plaza,Los Angeles,California,False,True,Room: 3151,,34.0680507,-118.4435697,2016-08-01T21:13:59.984Z,2016-08-01T21:13:59.984Z,0,0,US,False,24435,True
24436,UCLA Covel Commons,200 De Neve Dr,Los Angeles,California,False,True,Room: B11,,34.07315130000001,-118.4491411,2016-08-01T21:14:40.958Z,2016-08-01T21:14:40.958Z,0,0,US,False,24436,True
24437,UCLA Dentistry ,10833 Le Conte Ave,Los Angeles,California,False,True,"Locations in Rooms: A0119B, A3022, A3024, B0161, B0163, B3015, & B3017",,34.0658937,-118.4433608,2016-08-01T21:16:23.072Z,2016-08-01T21:16:23.072Z,0,0,US,False,24437,True
24438,UCLA Drake Stadium,340 Bruin Walk,Los Angeles,California,False,True,Room: 100,,34.0710005,-118.4474707,2016-08-01T21:17:05.850Z,2016-08-01T21:17:05.850Z,0,0,US,False,24438,True
24439,UCLA Facilities Management,731 Charles E Young Dr S,Los Angeles,California,False,True,Room: 1144B,,34.067118,-118.4470423,2016-08-01T21:17:53.140Z,2016-08-01T21:17:53.140Z,0,0,US,False,24439,True
24440,UCLA Fernald Child Care Center,10620 Sunset Blvd,Los Angeles,California,False,True,Locations in Rooms: 104 & 151,,34.0774589,-118.4426399,2016-08-01T21:18:55.552Z,2016-08-01T21:18:55.552Z,0,0,US,False,24440,True
24441,UCLA Health Sciences,10833 Le Conte Ave,Los Angeles,California,False,True,Room: 16104,,34.0658937,-118.4433608,2016-08-01T21:19:43.029Z,2016-08-01T21:19:43.029Z,0,0,US,False,24441,True
24442,UCLA John Wooden Center,221 Westwood Plaza,Los Angeles,California,False,True,Room: 1282E,,34.071726,-118.445317,2016-08-01T21:21:01.885Z,2016-08-01T21:21:01.885Z,0,0,US,False,24442,True
24443,UCLA Kerckhoff,308 Westwood Plaza,Los Angeles,California,False,True,Locations in Rooms: 413A & 416A,,34.070418,-118.4441451,2016-08-01T21:31:11.948Z,2016-08-01T21:31:11.948Z,0,0,US,False,24443,True
24444,UCLA Kinross Center,11000 Kinross Ave,Los Angeles,California,False,True,Room: 108,,34.0593581,-118.4467828,2016-08-01T21:31:50.997Z,2016-08-01T21:31:50.997Z,0,0,US,False,24444,True
24445,UCLA Krieger Center (A and B),Sunset Blvd and Veteran Ave,Los Angeles,California,False,True,"Locations in Rooms: 
A; A60B, A60C
B; B36",North-Western most part of campus,34.0757633,-118.4555991,2016-08-01T21:36:13.742Z,2016-08-01T21:36:13.742Z,0,0,US,False,24445,True
24446,UCLA La Kretz,619 Charles E Young Dr E #300,Los Angeles,California,False,True,Locations in Rooms: 300J & 300K,,34.0662308,-118.4447596,2016-08-01T21:37:12.897Z,2016-08-01T21:37:12.897Z,0,0,US,False,24446,True
24447,UCLA Lath House,707 Tiverton Dr,Los Angeles,California,False,True,Room: 120A,,34.0665873,-118.4414944,2016-08-01T21:38:34.008Z,2016-08-01T21:38:34.008Z,0,0,US,False,24447,True
24448,UCLA Law School,385 Charles E Young Dr E,Los Angeles,California,False,True,"Locations in Rooms: 2487, 2489, & 4104D",,34.0729652,-118.4385722,2016-08-01T21:39:37.773Z,2016-08-01T21:39:37.773Z,0,0,US,False,24448,True
24449,UCLA MacDonald Research Lab (MRL),675 Charles E Young Dr S,Los Angeles,California,False,True,Room: B758,,34.067073,-118.4442885,2016-08-01T21:41:02.725Z,2016-08-01T21:41:02.725Z,0,0,US,False,24449,True
24450,UCLA MacGowen Hall,245 Charles E Young Dr E,Los Angeles,California,False,True,Room: 3318A,,34.0758959,-118.4398799,2016-08-01T21:41:58.502Z,2016-08-01T21:41:58.502Z,0,0,US,False,24450,True
24451,UCLA Orthopaedic Hospital Research Center,635 Charles E Young Dr S,Los Angeles,California,False,True,"Locations in Rooms: 104, 175, 223, 275, 323, 375, 423, 475, & 523, ",,34.0676021,-118.4436021,2016-08-01T21:44:22.930Z,2016-08-01T21:44:22.930Z,0,0,US,False,24451,True
24452,UCLA Pauley Pavilion,301 Strathmore Pl,Los Angeles,California,False,True,Room: 273A,,34.0687469,-118.4469065,2016-08-01T21:45:40.583Z,2016-08-01T21:45:40.583Z,0,0,US,False,24452,True
24453,UCLA Plant Growth Center,614 Charles E Young Dr S,Los Angeles,California,False,True,Locations in Rooms: B01 & B05,,34.0662873,-118.4402741,2016-08-01T21:49:11.954Z,2016-08-01T21:49:11.954Z,0,0,US,False,24453,True
24454,UCLA Reed Center,10833 Le Conte Ave,Los Angeles,California,False,True,Room: 4220,,34.0658937,-118.4433608,2016-08-01T22:02:32.316Z,2016-08-01T22:02:32.316Z,0,0,US,False,24454,True
24455,UCLA Rehabilitation Center,1000 Veteran Ave A-744,Los Angeles,California,False,True,"Locations in Rooms: 1119, 2245",,34.0607825,-118.4492394,2016-08-01T22:06:29.922Z,2016-08-01T22:06:29.922Z,0,0,US,False,24455,True
24456,UCLA Royce Hall,340 Royce Dr b100,Los Angeles,California,False,True,Room: 128,,34.0728242,-118.4421682,2016-08-01T22:07:09.372Z,2016-08-01T22:07:09.372Z,0,0,US,False,24456,True
24457,UCLA Ronald Reagan Medical Center,757 Westwood Plaza,Los Angeles,California,False,True,"Locations in Rooms: 1107B1, 1236, 1312A, 2203N, 2203Q1, 2221B, 2325, 2546, 2575A, 2575B, 2535K, 5270, 5605, 6270, 7270, 8270, B202B, B310, 3213A, 4513, 5406C, 5509, 5515G, 7406A, 8406A",,34.0664433,-118.4463136,2016-08-01T22:12:36.728Z,2016-08-01T22:12:36.728Z,0,0,US,False,24457,True
24458,UCLA Schoenberg Music Center,445 Charles E Young Dr E,Los Angeles,California,False,True,"Locations in Rooms: 1128, 1134",,34.0706858,-118.4401533,2016-08-01T22:14:26.103Z,2016-08-01T22:14:26.103Z,0,0,US,False,24458,True
24459,UCLA Semel Institute,760 Westwood Plaza,Los Angeles,California,False,True,"Locations in Rooms: 38162, 48269",,34.0658571,-118.4448153,2016-08-01T22:17:02.418Z,2016-08-01T22:17:02.418Z,0,0,US,False,24459,True
24460,UCLA Science and Tech Research Building,1040 Veteran Ave,Los Angeles,California,False,True,Room: B111,,34.060785,-118.4484362,2016-08-01T22:19:02.123Z,2016-08-01T22:19:02.123Z,0,0,US,False,24460,True
24461,UCLA Sycamore Tennis Courts,305 De Neve Dr,Los Angeles,California,False,True,"Rooms: 100, 101",,34.07102810000001,-118.4541896,2016-08-01T22:20:06.753Z,2016-08-01T22:20:06.753Z,0,0,US,False,24461,True
24462,UCLA Terasaki Life Science Building,610 Charles E Young Dr S,Los Angeles,California,False,True,"Locations in Rooms: 1110, 2034, 3034, 4034, 5034",,34.067188,-118.4401018,2016-08-01T22:21:14.317Z,2016-08-01T22:21:14.317Z,0,0,US,False,24462,True
24463,UCLA Warren Hall,900 Weyburn Pl,Los Angeles,California,False,True,Room: 11167,,34.062632,-118.4500657,2016-08-01T22:22:22.696Z,2016-08-01T22:22:22.696Z,0,0,US,False,24463,True
24464,UCLA Young Research Library,280 Charles E Young Dr N,Los Angeles,California,False,True,"Locations in Rooms: 11938, 11368A, 11368B, 11940",,34.074971,-118.4414384,2016-08-01T22:23:30.917Z,2016-08-01T22:23:30.917Z,0,0,US,False,24464,True
24784,Stir Crazy Coffee Shop,6903 Melrose Ave. ,Los Angeles,CA,False,True,In the back of the small coffee shop with a crescent moon on the door. ,Might need to be a paying customer. Not sure. ,34.0836747,-118.3417374,2016-08-17T21:05:20.274Z,2016-08-17T21:05:20.274Z,0,0,US,False,24784,True
24951,Birnkrant Residence Hall Lobby,642 W. 34th St,Los Angeles,California,True,True,Just behind and to the right of the security desk,You must be a USC student or the guest of a USC student to access this location,34.021445,-118.2824174,2016-08-25T20:17:05.221Z,2016-08-25T20:17:05.221Z,0,0,US,False,24951,True
24952,BirnKrant Residence Hall Lobby,642 W. 34th St,Los Angeles,CA,True,True,Just behind and to the right of the security desk,You must be either a USC student or the guest of a USC student to access this building,34.021445,-118.2824174,2016-08-25T20:18:32.631Z,2016-08-25T20:18:32.631Z,0,0,US,False,24952,True
25685,The Relational Center,2717 S. Robertson Blvd ,Los Angeles ,CA,True,True,"Through the front door and straight forward, last door on the right. ",Just come on in. You can let anyone know that you're looking for a safe restroom. ,34.0372559,-118.3889089,2016-09-29T21:36:16.176Z,2016-09-29T21:36:16.176Z,0,0,US,False,25685,True
26207,Engemann Student Health Center,1031 West 34th Street,Los Angeles,CA,True,True,"100% sure there are on the second floor, haven't checked on other floors.",Open to the public,34.0252377,-118.2887765,2016-11-10T22:41:35.192Z,2016-11-10T22:41:35.192Z,0,1,US,False,26207,True
26213,Taper Hall (University of Southern California),3501 Trousdale Parkway,Los Angeles,California,True,True,On the ground floor next to the water fountain by THH101 and THH102,,34.0217257,-118.2843815,2016-11-10T22:57:31.821Z,2016-11-10T22:57:31.821Z,0,0,US,False,26213,True
26241,Taper Hall of Humanities 1st floor (north end),3501 Trousdale Parkway,Los Angeles,CA,True,True,"Located in the lobby area of the north end of the building, 1st floor.",Can not enter campus without showing USC ID between 9pm and 6am -- all other times is open to the public.,34.0217257,-118.2843815,2016-11-11T00:43:15.607Z,2016-11-11T00:43:15.607Z,0,1,US,False,26241,True
26278,The Box LA,"805 Traction Avenue, The Box Gallery",Los Angeles,California,True,True,"Located inside the art gallery. Open most Wednesdays through Saturdays, noon to 6pm. ",,34.0522342,-118.2436849,2016-11-11T03:49:15.288Z,2016-11-11T03:49:15.288Z,3,0,US,False,26278,True
26288,ONE National Gay and Lesbian Archives at the USC Libaries,909 W. Adams Blvd.,Los Angeles,CA,True,True,,"Bathrooms labeled as ""Butch"" and ""Fabulous."" Stay safe friends. Love you. ",34.0310319,-118.2815656,2016-11-11T04:09:36.367Z,2016-11-11T04:09:36.367Z,0,2,US,False,26288,True
26390,USC Joint Educational Project,801 W. 34th Street,Los Angeles,90007,True,True,First floor in the back.,We primarily serve USC student volunteers but you will not be turned away.,34.0226438,-118.2838406,2016-11-11T23:17:45.452Z,2016-11-11T23:17:45.452Z,0,1,US,False,26390,True
26561,Craft Beer Cellar,1353 Colorado Blvd,Los Angeles,CA,True,True,,"seems very welcoming to everyone, don't have to buy anything",34.1397967,-118.1945919,2016-11-16T04:25:46.894Z,2016-11-16T04:25:46.894Z,0,0,US,False,26561,True
26601,House of Pies,1869 N. Vermont Ave.,Los Angeles ,CA,False,False,,"It's a diner. You should probably be eating here to use the bathroom, but it's a safe diner space.",34.10511,-118.292108,2016-11-19T03:32:19.661Z,2016-11-19T03:32:19.661Z,0,0,US,False,26601,True
26608,Swinger's Diner Hollywood,8020 Beverly Blvd,Los Angeles,CA,True,False,,,34.0758032,-118.364627,2016-11-19T21:31:56.534Z,2016-11-19T21:31:56.534Z,0,0,US,False,26608,True
26804,UCLA Student Activities Center,220 Westwood Plaza,Los Angeles,California,False,True,Room #B08,All-gender restroom and lactation room,34.0714671,-118.4440806,2016-11-29T00:57:17.729Z,2016-11-29T00:57:17.729Z,0,0,US,False,26804,True
27264,The Novo by Microsoft,900 W Olympic Blvd ,Los Angeles,California,False,True,"Marked ""restrooms"" inside of the venue, to the left when you enter the club","You have to be a paying customer, but if you're inside the venue for a concert or the bar you're set",34.0452222,-118.2666713,2016-12-29T04:20:33.227Z,2016-12-29T04:20:33.227Z,0,0,US,False,27264,True
27580,McKay Hall,1 Loyola Marymount Drive,Los Angeles,California,True,True,In McKay Hall (dormitory attached to Iggy's Diner). 1st floor. Next to the common room + kitchen. ,"Need card access to enter McKay Hall. If you wait around outside, though, a student will probably come by and let you in.",33.9667385,-118.4225857,2017-01-21T05:36:06.143Z,2017-01-21T05:36:06.143Z,0,0,US,False,27580,True
27877,Coffee Bean and Tea Leaf,Lincoln Blvd,Los Angeles,California,False,True,"In the back hall to the left, ask barista for door code ",,33.9766255,-118.433728,2017-02-01T19:20:39.987Z,2017-02-01T19:20:39.987Z,0,0,US,False,27877,True
28081,Young Research Library,280 Charles E. Young Drive N,Los Angeles,CA,True,True,"past the elevators, go left, walk straight and turn right at last hall, walk down hall and turn right at restrooms",,34.0754572,-118.4417543,2017-02-16T08:37:25.496Z,2017-02-16T08:37:25.496Z,0,0,US,False,28081,True
28482,Kindness & Mischief Coffee,5537 N Figueroa St,Los Angeles,CA,True,True,At the back of the coffee shop. ,,34.1089553,-118.194601,2017-02-24T06:07:22.814Z,2017-02-24T06:07:22.814Z,0,0,US,False,28482,True
28508,Gnomon School of Visual Effects ,1015 N Cahuenga Blvd 90038,Los Angeles,CA,True,False,"-Bathroom by Lab 6/Sculpture is single stall
-Bathroom by drawing room is single stall ",,34.0895706,-118.3291896,2017-02-24T07:11:31.624Z,2017-02-24T07:11:31.624Z,0,0,US,False,28508,True
28801,ETO Doors,1340 E 6th St,Los Angeles,CA,True,True,Only available on the 4th through 6th floors,This is a doors manufacturing company on the ground floor with mostly creative offices on higher floors. Restrooms are shared / gender neutral on each floor from the 4th through 6th floor,34.0376406,-118.2341354,2017-02-24T20:05:01.602Z,2017-02-24T20:05:01.602Z,0,0,US,False,28801,True
28803,Stumptown Coffee Roasters,806 S Santa Fe Ave,Los Angeles,CA,False,True,Two restrooms down the hall towards the back – both are gender neutral,,34.0332792,-118.2297866,2017-02-24T20:06:36.239Z,2017-02-24T20:06:36.239Z,0,0,US,False,28803,True
28813,Student Activites Center,220 Westwood Plaza,Los Angeles,CA,True,True,Basement level of building ,,34.0714671,-118.4440806,2017-02-24T20:16:47.408Z,2017-02-24T20:16:47.408Z,0,0,US,False,28813,True
29013,Nature's Brew,2316 South Union Ave,Los Angeles,California,True,True,Two unisex bathrooms near kitchens,"You need to be a paying customer, but staff is friendly",34.0342656,-118.2835784,2017-02-25T00:02:47.339Z,2017-02-25T00:02:47.339Z,0,0,US,False,29013,True
29019,Immediate Medical Care,434 S San Vicente Blvd.,Los Angeles,CA,True,False,,You need to ask the receptionist for the key.,34.0706467,-118.3756316,2017-02-25T00:07:57.535Z,2017-02-25T00:07:57.535Z,0,0,US,False,29019,True
29029,Ackerman Union,308 Westwood Plaza,Los Angeles,California,True,False,"A-level, across from the gendered restrooms.",,34.070418,-118.4441451,2017-02-25T00:21:43.558Z,2017-02-25T00:21:43.558Z,0,0,US,False,29029,True
29043,Cal State LA Student Union ,5154 State University Drive ,Los Angeles ,CA,True,True,Second floor ,They are labeled as gender neutral (: ,34.064291,-118.169655,2017-02-25T00:43:25.271Z,2017-02-25T00:43:25.271Z,0,0,US,False,29043,True
29364,Bar Bandini,2150 Sunset Blvd,Los Angeles,CA,False,False,"In the back, hallway to the left",,34.0772997,-118.2655108,2017-02-25T06:43:13.163Z,2017-02-25T06:43:13.163Z,1,0,US,False,29364,True
29365,Bar Bandini,2150 Sunset Blvd,Los Angeles,CA,False,False,"In the back, hallway to the left",,34.0772997,-118.2655108,2017-02-25T06:43:14.499Z,2017-02-25T06:43:14.499Z,0,0,US,False,29365,True
29367,Bar Bandini,2150 Sunset Blvd,Los Angeles,CA,False,False,Walk to the back of the bar and turn down the only hallway to the left.,You have to walk past the bar itself to get to it.,34.0772997,-118.2655108,2017-02-25T06:45:40.015Z,2017-02-25T06:45:40.015Z,0,0,US,False,29367,True
29369,"Taper Hall, USC",3501 Trousdale Parkway,Los Angeles,CA,False,True,"Second floor, south end of building in Slavic/Classics wing",A little tricky to find—to the east of the main hallway,34.0217257,-118.2843815,2017-02-25T06:47:33.726Z,2017-02-25T06:47:33.726Z,0,1,US,False,29369,True
30141,UCLA EPSS,595 Charles Young Drive Easy,Los Angeles,CA,True,True,"First floor, in small hallway on the western side of the building, most of the way drown the hall. Has a triangle on the door. ",Public universities are open to the public during business hours but the first floor door is usually open.,34.0691534,-118.4403547,2017-02-26T03:17:34.504Z,2017-02-26T03:17:34.504Z,0,0,US,False,30141,True
30355,"Loyola Marymount University, Whelan residence hall",1 LMU Drive,Los Angeles,CA,False,True,1 bathroom on each floor ,You have to live in the building to access it (or have a friend who lives there and can let you in).,33.9707666,-118.4192316,2017-02-26T11:36:42.121Z,2020-04-14T21:15:52.021Z,0,0,US,False,30355,True
31907,Young Research Library UCLA,Charles E. Young Drive,Los Angeles,Ca,True,False,There are 4 on the ground floor. Look at a map inside for further directions,,34.0749568,-118.4444973,2017-02-28T03:02:26.451Z,2017-02-28T03:02:26.451Z,0,0,US,False,31907,True
31977,Revenge Fantasy Cycles,1551 Echo Park Ave,Los Angeles,California,False,True,On Delta despite the Echo Park address. Behind Chango coffee shop.,No explanation or purchase ever needed.,34.0812621,-118.254826,2017-02-28T05:14:28.435Z,2017-02-28T05:14:28.435Z,0,0,US,False,31977,True
32200,Broad Art Center,240 Charles E Young Dr N,Los Angeles,CA,True,True,"On the second floor, up the small, first set of outdoor stairs, room 2113",,34.075768,-118.4411064,2017-03-01T01:13:56.110Z,2017-03-01T01:13:56.110Z,0,0,US,False,32200,True
32485,Fix Coffee,2100 Echo Park Avenue,Los Angeles,California,True,True,,,34.0895988,-118.249756,2017-03-01T18:36:48.947Z,2017-03-01T18:36:48.947Z,0,0,US,False,32485,True
32685,Lassens,710 S La Brea ,Los Angeles,California,True,True,"Left most aisle, by the bulk section. ",Two unisex stalls that used to be gendered.,34.0616677,-118.3437142,2017-03-02T04:26:12.670Z,2017-03-02T04:26:12.670Z,0,0,US,False,32685,True
33167,Tiago,7080 Hollywood Blvd.,Los Angeles ,CA,True,True,,,34.1011652,-118.3444567,2017-03-28T02:12:10.875Z,2017-03-28T02:12:10.875Z,0,0,US,False,33167,True
33388,Starbucks," 1222-1228 3rd St, Santa Monica, CA 90401, USA",Los Angeles,California,True,True,"Starbucks that's next to barns and Noble, walk in and go left.",You have to ask for a code,34.0175997,-118.4989065,2017-03-31T23:40:52.538Z,2017-03-31T23:40:52.538Z,0,0,US,False,33388,True
33561,Next stage theater,1539 n la brea ave,Los Angeles,Ca,True,True,Upstairs.,"I believe you have to be attending a show, but both bathrooms are unisex.",34.0989207,-118.3448336,2017-04-03T07:22:47.719Z,2017-04-03T07:22:47.719Z,0,0,US,False,33561,True
33564,STAPLES Center ,1111 S Figueroa St ,Los Angeles ,Ca,True,True,Across from section 117 ,,34.043125,-118.267118,2017-04-03T10:42:07.125Z,2017-04-03T10:42:07.125Z,0,0,US,False,33564,True
33589,Ackerman Studen Union,308 Westwood Plaza,Los Angeles ,CA,True,True,"A-Level of the building, room A264",,34.070418,-118.4441451,2017-04-03T23:07:46.254Z,2017-04-03T23:07:46.254Z,0,0,US,False,33589,True
33601,Starbucks,1898 Westwood Blvd,Los Angeles,CA,True,True,In the back,,34.0483798,-118.435329,2017-04-04T06:53:42.049Z,2017-04-04T06:53:42.049Z,0,0,US,False,33601,True
33851,Zankou Chicken,7851 Sunset Blvd,Los Angeles,CA,True,True,,,34.0983072,-118.3606415,2017-04-09T22:31:30.772Z,2017-04-09T22:31:30.772Z,0,0,US,False,33851,True
34134,In N Out,922 Gayley Ave,Los Angeles,California,True,True,straight in turn right walk all the way back,,34.0630984,-118.4480179,2017-04-16T01:55:52.918Z,2017-04-16T01:55:52.918Z,0,1,US,False,34134,True
34227,LAX Terminal 1,1 World way,Los Angeles,CA,True,True,By gate 12A next to the line for boarding,"This bathroom is inside airport security, so you must have a plane ticket.",33.9415889,-118.40853,2017-04-17T18:35:55.168Z,2017-04-17T18:35:55.168Z,0,0,US,False,34227,True
34247,Pep Boys,10644 W Pico Blvd,Los Angeles ,CA ,True,True,In the back of the parts store. ,"Doesn't say ""just for customers"" and no one bothered me but it might be good to look around a bit. ",34.0424178,-118.4232196,2017-04-17T23:26:40.172Z,2017-04-17T23:26:40.172Z,0,0,US,False,34247,True
34391,Golden road,5410 w San Fernando road ,Los Angeles ,California ,False,True,Got twords the sign that says ladies but instead of going into the main restroom there is a sign that says gender nutral toilet ,"It does sell beer but kids under 18 can go in, you don't need to get anything to go in",34.1506265,-118.2744516,2017-04-22T04:03:39.144Z,2020-04-14T21:17:56.337Z,0,0,US,False,34391,True
34408,Pitchoun Bakery and Cafe,545 S Olive Street,Los Angeles ,California,True,True,"Bottom of the building, entrance to the cafe is on the street ","I think you have to buy something, but they have really good pastries, coffee, and tea! Both single stall unisex and ungendered bathrooms. ",34.0485765,-118.254111,2017-04-22T16:13:06.797Z,2017-04-22T16:13:06.797Z,3,1,US,False,34408,True
34409,Pitchoun Bakery and Cafe,545 S Olive Street,Los Angeles ,California,True,True,"Bottom of the building, entrance to the cafe is on the street ","I think you have to buy something, but they have really good pastries, coffee, and tea! Both single stall unisex and ungendered bathrooms. ",34.0485765,-118.254111,2017-04-22T16:13:06.880Z,2017-04-22T16:13:06.880Z,1,0,US,False,34409,True
34679,Stout,1544 N Cahuenga Blvd,Los Angeles,CA,False,True,,,34.0994455,-118.3293462,2017-04-29T23:48:04.399Z,2017-04-29T23:48:04.399Z,0,0,US,False,34679,True
34878,Starbucks,8783 W Pico Blvd,Los Angeles,CA,True,True,,"There are codes on the door, so you don't need to ask for the code from the barista. There are two bathrooms and both are gender neuteral.",34.0549566,-118.3833869,2017-05-06T21:25:49.504Z,2017-05-06T21:25:49.504Z,0,0,US,False,34878,True
34891,Veggie grill,110 s fairfax ave,los angeles,california ,False,True,in the back of the restaurant ,,34.0736727,-118.3606187,2017-05-07T02:44:07.933Z,2017-05-07T02:44:07.933Z,0,0,US,False,34891,True
34892,Veggie grill,110 s fairfax ave,los angeles,california ,False,True,in the back of the restaurant ,,34.0736727,-118.3606187,2017-05-07T02:44:08.563Z,2017-05-07T02:44:08.563Z,0,0,US,False,34892,True
34967,Las Galas,103 Japanese Village Plaza Mall,Los Angeles,CA,True,True,All the way in the back.,"You have to be a customer. Also, the stalls were previously gendered, but now both stalls are neutral. This may change, but for now they have a sign that says they are in favor of neutrality.",34.0492426,-118.23986,2017-05-09T20:07:11.138Z,2017-05-09T20:07:11.138Z,3,0,US,False,34967,True
35339,Spring Street Bar & Sandwich Shoppe,626-B S Spring St,Los Angeles,CA,False,True,,"Probably have to be a paying customer, or at least act like you are.",34.0451591,-118.2514288,2017-05-27T23:02:33.515Z,2017-05-27T23:02:33.515Z,0,0,US,False,35339,True
35741,Milk Jar Cookies,5466 wilshire blvd,Los angeles ,California,False,False,in the back hallway,you have to be a paying customer,34.0620877,-118.3478127,2017-06-13T22:33:21.274Z,2017-06-13T22:33:21.274Z,0,0,US,False,35741,True
36032,PacMutual Building,523 W 6th St,Los Angeles,Ca,False,False,11th floor through fire escape door. Two separate gender neutral bathrooms. ,Not sure if other floors have them as well,34.0486546,-118.2547171,2017-06-26T21:19:33.949Z,2017-06-26T21:19:33.949Z,0,1,US,False,36032,True
36179,Arclight Hollywood,6360 Sunset Blvd,Los Angeles,CA,True,True,"At the base of the stairs in the lobby, past the gendered restrooms, close to the escalator ",Seems to be open to public. Disability sign on door.,34.0973718,-118.3278725,2017-07-03T21:33:40.866Z,2017-07-03T21:33:40.866Z,0,0,US,False,36179,True
36261,Trader Joe's ,2738 Hyperion Ave.,Los Angeles,CA,True,True,,,34.1076421,-118.2716536,2017-07-08T05:01:30.990Z,2017-07-08T05:01:30.990Z,0,0,US,False,36261,True
36578,Andante,2201 w sunset blvd,Los angeles,Ca ,True,True,,,34.0777121,-118.2654364,2017-07-24T13:50:59.235Z,2017-07-24T13:50:59.235Z,0,0,US,False,36578,True
36821,McDonalds,4166 Melrose Ave,Los Angeles,CA,False,False,,"It says ""customers only"" but it didn't seem to actually be locked so you can probably just go in",34.08335400000001,-118.291326,2017-08-05T02:21:19.318Z,2017-08-05T02:21:19.318Z,0,0,US,False,36821,True
36911,Whole Foods market,788 s grand avenue,Los Angeles ,California,True,True,In the corner near the bar/resturant area,Have to be a customer,34.04609,-118.2569742,2017-08-11T18:38:36.526Z,2017-08-11T18:38:36.526Z,0,0,US,False,36911,True
36977,Del Taco,4376 Sunset Blvd,Los Angeles,CA,True,False,Right from door,,34.0962616,-118.2849918,2017-08-14T20:31:03.031Z,2017-08-14T20:31:03.031Z,0,0,US,False,36977,True
37076,Urban Social House,5220 Hollywood Blvd,Los Angeles ,CA,True,True,"First floor in the back, big door.",,34.1015627,-118.3040057,2017-08-19T19:31:29.258Z,2017-08-19T19:31:29.258Z,0,1,US,False,37076,True
37325,West LA Studio Services,2033 Pontius Ave,Los Angeles,CA,False,True,down the hall on the left,just ask the dude at the front,34.041754,-118.4404254,2017-08-29T18:21:20.014Z,2017-08-29T18:21:20.014Z,0,0,US,False,37325,True
37337,Lyric Hyperion Theatre & Cafe,2106 Hyperion Ave,Los Angeles ,CA,True,True,,,34.0988601,-118.273745,2017-08-30T07:22:48.089Z,2017-08-30T07:22:48.089Z,0,0,US,False,37337,True
37862,Kaiser Permanente West LA Medical Center: Urgent Care,6041 Cadillac Ave,Los Angeles,California,True,True,"By check-in area, first floor",,34.0383466,-118.3759001,2017-09-22T22:05:44.552Z,2017-09-22T22:05:44.552Z,2,27,US,False,37862,True
37961,UCLA Charles E. Young Research Library,280 Charles E Young Dr N,Los Angeles,CA,True,True,There are two gender neutral bathrooms on either side of the research commons. Go straight and then left when you enter the library. ,The library is open to the public. ,34.0749691,-118.441466,2017-09-30T02:26:19.065Z,2017-09-30T02:26:19.065Z,0,0,US,False,37961,True
38170,Staples,622 W 17th St,Los Angeles,California,False,False,,,34.036509,-118.271733,2017-10-14T18:09:23.171Z,2017-10-14T18:09:23.171Z,0,0,,False,38170,True
38395,KMart,6328 W 3rd St,Los Angeles,California,False,True,by the little ceasers inside,a bit unclean but there if needed,34.0704641,-118.3598147,2017-10-28T03:39:34.096Z,2017-10-28T03:39:34.096Z,0,1,US,True,38395,True
38407,Edelman Westside Mental Health,11080 W. Olympic Blvd,Los Angeles,CA,True,True,4th floor in the lobby,This is a mental health clinic. ,34.0401426,-118.4373972,2017-10-28T23:29:58.052Z,2017-10-28T23:29:58.052Z,0,0,US,False,38407,True
38631,Natural History Museum,900 W Exposition Blvd,Los Angeles,CA,True,True,"Main floor, across from the elevator","I didn't go in, but it had a picture of a baby, so I'm assuming it did have a changing table. It was labeled as a ""gender neutral"" restroom and I'm fairly certain it was formerly a ""family"" restroom that was relabeled. ",34.0169571,-118.2888306,2017-11-13T02:26:35.461Z,2017-11-13T02:26:35.461Z,0,0,US,True,38631,True
38789,LAX Southwest Terminal 1,"Terminal 1, 1 World Way",Los Angeles,CA,True,False,"Between gates 9 and 10, when you come up the escalator from security. ",,33.94636260000001,-118.4010845,2017-11-24T21:56:38.145Z,2017-11-24T21:56:38.145Z,0,1,US,False,38789,True
39022,"9175 De Soto Ave, Chatsworth, CA 91311, USA",9175 De Soto Ave,Los Angeles,California,True,True,To the right side just inside door ,No key needed. ,34.237555,-118.5890677,2017-12-15T19:38:06.224Z,2017-12-15T19:38:06.224Z,0,0,US,True,39022,True
39023,"9168 De Soto Ave, Chatsworth, CA 91311, USA",9168 De Soto Ave,Los Angeles,California,True,True,,No key needed ,34.2377789,-118.5879957,2017-12-15T19:39:24.224Z,2017-12-15T19:39:24.224Z,0,0,US,False,39023,True
39255,Snowya,123 Astronaut E S Onizuka St,Los Angeles,California,True,True,,For customers only,34.0501009,-118.2421794,2018-01-02T00:16:54.542Z,2018-01-02T00:16:54.542Z,37,1,US,False,39255,True
39562,Trader joes,263 South La Brea Ave,Los Angeles,California,False,False,,,34.0691895,-118.3443774,2018-01-21T04:08:04.444Z,2018-01-21T04:08:04.444Z,0,1,US,True,39562,True
39563,Petco,8161 beverly blvd,Los angeles,Ca,False,False,,,34.0763708,-118.367513,2018-01-21T04:09:06.213Z,2018-01-21T04:09:06.213Z,0,0,,False,39563,True
39649,House of Pies,1869 N Vermont Ave,Los Angeles,CA,True,False,Near the rear of the restaurant on the right.,"As of Jan 2018, House or Pies’ recently remodeled restrooms are gender specific (some ADA friendly, but not all) but all single-stalled; two male, two female.",34.10511,-118.292108,2018-01-25T02:55:38.352Z,2018-01-25T02:55:38.352Z,0,1,US,False,39649,True
39686,Kaiser Permanente Urgent Care,6041 Cadillac Avenue,Los Angeles,CA,False,True,,,34.0383728,-118.3750021,2018-01-28T16:05:19.099Z,2020-04-14T21:21:04.451Z,0,0,US,False,39686,True
39854,Marmalade Cafe,14900 Ventura Blvd,Los Angeles,California,True,False,,Likely have to be dining with them,34.15236008479385,-118.45746380407627,2018-02-09T03:15:16.628Z,2018-02-09T03:15:16.628Z,0,0,US,False,39854,True
39975,Folklore Salon,1102 Mohawk St ,Los Angeles,CA,False,True,,,34.0776891,-118.2651163,2018-02-17T20:14:58.011Z,2018-02-17T20:14:58.011Z,0,1,US,False,39975,True
39986,Tipsy Cow Bar,15003 Ventura Blvd,Los Angeles,California,True,True,,Bi-gender signage/ two bathrooms,34.1529991,-118.4598398,2018-02-18T07:37:55.643Z,2018-02-18T07:37:55.643Z,0,0,US,False,39986,True
40031,Mel's Drive In,14846 Ventura Blvd,Los Angeles,California,False,False,At the ba k of the diner,,34.15228160567037,-118.45676218170529,2018-02-19T22:06:49.542Z,2018-02-19T22:06:49.542Z,0,0,US,True,40031,True
40034,Inko Nito Restaurant,225 South Garey Street,Los Angeles,CA,True,True,The door to the restaurant is easy to miss but it’s behind the valet station. The restroom is in the back.,,34.0466029,-118.2351864,2018-02-20T03:12:06.460Z,2018-02-20T03:12:06.460Z,0,0,US,False,40034,True
40164,Fred 62,1850 N Vermont Ave. ,Los Angeles ,CA,True,True,,,34.1046388,-118.291511,2018-02-28T00:46:14.887Z,2018-02-28T00:46:14.887Z,0,1,US,False,40164,True
40165,Pizzanista!,2019 E 7th St,Los Angeles,CA,True,True,,,34.0348332,-118.2316054,2018-02-28T00:53:46.040Z,2018-02-28T00:53:46.040Z,0,0,US,False,40165,True
40496,"19652-19654 Plummer St, Northridge, CA 91324, USA",19652-19654 Plummer St,Los Angeles,California,False,False,,,34.2427474,-118.5609167,2018-03-20T19:00:31.244Z,2018-03-20T19:00:31.244Z,0,1,US,False,40496,True
40563,The Broad Museum,221 S Grand Ave. ,Los Angeles ,CA ,True,True,,Have to get a ticket,34.0547246,-118.250972,2018-03-25T20:51:17.118Z,2020-04-14T21:17:15.824Z,0,0,US,False,40563,True
40566,Bugs Land,Disney’s California Adventure,Los Angeles ,California ,False,False,"It’s in the middle of bugs land. It’s marked family, right in between the men’s and women’s restrooms.",,33.806112,-117.920859,2018-03-25T22:07:39.362Z,2018-03-25T22:07:39.362Z,0,0,US,False,40566,True
40580,Rest rooms,Observatory Road,Los Angeles ,California ,False,True,,,34.12015691402752,-118.3005574532955,2018-03-26T23:00:46.177Z,2018-03-26T23:00:46.177Z,0,1,US,False,40580,True
40612,Islands Fine Burgers And Drinks,404 Washington Blvd,Los Angeles ,California,True,False,"In the back, near two gendered restrooms ",Anyone can use the bathrooms here,33.9809727,-118.4630866,2018-03-29T03:32:46.078Z,2018-03-29T03:32:46.078Z,0,0,US,True,40612,True
40809,Ministry of Coffee,1024-1030 Glendon Ave,Los Angeles,California,False,False,Ungendered single stall,,34.0615663,-118.4439481,2018-04-07T22:42:33.097Z,2018-04-07T22:42:33.097Z,0,0,US,False,40809,True
40886,Sage Restaurant ,1700 Sunset Blvd,Los Angeles ,CA,True,True,,,34.0771568,-118.258714,2018-04-11T15:15:30.252Z,2018-04-11T15:15:30.252Z,0,0,US,False,40886,True
40954,My Vegan Gold,4319 w Sunset Blvd,Los Angeles,CA,True,True,,,34.095263,-118.2829914,2018-04-14T22:54:07.208Z,2018-04-14T22:54:07.208Z,0,0,US,False,40954,True
41127,Trader Joes,3131 S Hoover St ste 1920,Los Angeles,California,True,False,Back of store on the right,,34.0257729,-118.2847667,2018-04-28T18:57:31.186Z,2018-04-28T18:57:31.186Z,0,1,US,False,41127,True
41860,Alcove Café & Bakery,1929 Hillhurst Ave,Los Angeles ,CA,True,False,,,34.1062307,-118.2877583,2018-06-16T18:18:39.809Z,2018-06-16T18:18:39.809Z,0,0,US,False,41860,True
41918,Starbucks ,6066 W Olympic Blvd,Los Angeles,CA,True,True,on the side near where pick up for drinks are ,ask for a water but you don’t need to be a paying customer ,34.0579563,-118.3637233,2018-06-19T19:01:58.403Z,2018-06-19T19:01:58.403Z,0,0,US,False,41918,True
41919,starbucks,6066 W Olympic Blvd,los angeles ,Ca,True,False,near where drink pick up is,ask for a water but you don’t need to be a paying customer,34.0579563,-118.3637233,2018-06-19T19:05:26.477Z,2018-06-19T19:05:26.477Z,0,1,US,False,41919,True
42107,ProjectQ,818 N. Spring St.,Los Angeles,CA,False,False,,,34.0624279,-118.2364442,2018-06-28T06:42:27.664Z,2018-06-28T06:42:27.664Z,0,0,US,False,42107,True
42559,Starbucks,3111 Glendale Blvd,Los Angeles,CA,True,True,On the right as you enter.,"The staff are friendly. I think the neighborhood tends to be conservative, but I have had no unpleasant encounters with patrons as a not-yet-passing transwoman.",34.11647749999999,-118.2630664,2018-07-25T15:36:18.707Z,2020-04-14T21:24:10.932Z,0,0,US,False,42559,True
42569,Folklore Salon,1102 Mohawk St,Los Angeles ,CA,False,True,"Back of the salon, to the left ","Queer Trans owned business, safe space",34.0776891,-118.2651163,2018-07-25T21:07:34.065Z,2018-07-25T21:07:34.065Z,0,0,US,False,42569,True
42574,Bootleg Theater,2220 Beverly Blvd,Los Angeles,CA,False,False,They are right when you walk in.,You have to have a ticket to a show in the venue.,34.0672716,-118.2722583,2018-07-26T00:10:46.710Z,2018-07-26T00:10:46.710Z,0,0,US,False,42574,True
42778,Chinatown Wishing Well,456 Gin Ling Way,Los Angeles ,CA,True,True,Next to wishing well and gift shops. ,"Requires two Quarters (50 cents) to open, or get lucky and follow someone coming out. ",34.0655875,-118.2376373,2018-08-04T22:54:02.604Z,2018-08-04T22:54:02.604Z,0,0,US,False,42778,True
42963,Art Share LA,801 E 4th Place,Los Angeles ,Ca,False,True,Head left when you enter the gallery and find it on your left.,,34.0446794,-118.2363434,2018-08-15T00:48:54.052Z,2018-08-15T00:48:54.052Z,0,0,US,False,42963,True
42964,Groundwork Coffee Co.,811 Traction Ave,Los Angeles,Ca,True,True,Ask for the restroom key from the barista(s).,,34.0452489,-118.2353477,2018-08-15T00:52:21.654Z,2018-08-15T00:52:21.654Z,0,0,US,False,42964,True
42965,The Resident,428 S Hewitt St,Los Angeles,Ca,False,True,Located next to the patio bar.,,34.0426405,-118.2348908,2018-08-15T00:56:02.383Z,2018-08-15T00:56:02.383Z,0,0,US,False,42965,True
42966,Salt & Straw,829 E 3rd St,Los Angeles,Ca,False,False,Located at the very back of the ice cream parlor.,,34.0460068,-118.2354571,2018-08-15T00:59:38.555Z,2018-08-15T00:59:38.555Z,0,0,US,False,42966,True
42967,EdiBOL,300 S Santa Fe Ave Unit Q,Los Angeles,Ca,True,True,Must ask for a key.,Must be a paying customer of the restaurant.,34.0443187,-118.2323323,2018-08-15T01:03:35.672Z,2018-08-15T01:03:35.672Z,0,0,US,False,42967,True
42981,Trans Wellness Center,3055 Wilshire Blvd,Los Angeles,Ca,True,False,Take the elevator to the 3rd floor.,The Trans Wellness Center is on the 3rd floor.,34.06223250000001,-118.2880455,2018-08-15T02:26:36.977Z,2018-08-15T02:26:36.977Z,0,0,US,True,42981,True
43048,Eat Drink Americano,923 E 3rd St,Los Angeles,Ca,True,False,You’ll see the restrooms on your left as soon as you enter the cafe. No host.,,34.0463062,-118.2341531,2018-08-18T18:15:30.817Z,2018-08-18T18:15:30.817Z,0,0,US,False,43048,True
43049,Urth Cafe,451 S Hewitt St,Los Angeles,Ca,True,False,Located at the right side.,There is usually a line of people waiting to use the restrooms.,34.0420236,-118.2354391,2018-08-18T18:20:09.257Z,2018-08-18T18:20:09.257Z,0,0,US,False,43049,True
43050,Starbucks ,138 S Central Ave,Los Angeles,Ca,True,False,Ask a barista for the restroom code.,,34.0480226,-118.239067,2018-08-18T18:25:16.605Z,2018-08-18T18:25:16.605Z,0,1,US,False,43050,True
43051,Starbucks ,232 E 2nd St,Los Angeles,Ca,False,False,,,34.049037,-118.242155,2018-08-18T18:27:36.117Z,2018-08-18T18:27:36.117Z,0,0,US,False,43051,True
43052,Starbucks ,217 N Hill St,Los Angeles,Ca,True,False,This Starbucks is inside Grand Park.,,34.0561986,-118.2470661,2018-08-18T18:30:58.743Z,2018-08-18T18:30:58.743Z,0,0,US,False,43052,True
43053,Starbucks ,639 N Broadway,Los Angeles,Ca,False,False,,,34.0596557,-118.2399341,2018-08-18T18:33:44.976Z,2018-08-18T18:33:44.976Z,0,2,US,False,43053,True
43054,Starbucks ,1277 N Western Ave,Los Angeles,Ca,False,False,,,34.094599,-118.3095963,2018-08-18T18:35:59.073Z,2018-08-18T18:35:59.073Z,0,0,US,False,43054,True
43057,Starbucks ,3150 Wilshire Blvd,Los Angeles,Ca,False,False,,,34.0609214,-118.2912287,2018-08-18T18:48:03.123Z,2018-08-18T18:48:03.123Z,0,0,US,False,43057,True
43058,The Coffee Bean & Tea Leaf,3183 Wilshire Blvd Unit 115A,Los Angeles,Ca,True,False,,,34.0623882,-118.2908777,2018-08-18T18:49:02.972Z,2018-08-18T18:49:02.972Z,0,0,US,False,43058,True
43059,Starbucks ,1601 Wilshire Blvd,Los Angeles,Ca,True,False,,,34.0556644,-118.2702663,2018-08-18T18:51:11.274Z,2018-08-18T18:51:11.274Z,0,0,US,False,43059,True
43060,Starbucks ,1090 Wilshire Blvd,Los Angeles,Ca,True,False,,,34.0519854,-118.263343,2018-08-18T18:52:05.971Z,2018-08-18T18:52:05.971Z,0,0,US,False,43060,True
43061,Starbucks ,523 W 6th St,Los Angeles,Ca,True,False,,,34.0486546,-118.2547171,2018-08-18T18:53:22.130Z,2018-08-18T18:53:22.130Z,0,0,US,False,43061,True
43294,Starbucks,11280 W Olympic Blvd,Los Angeles,California,True,True,,,34.0381014,-118.4408878,2018-08-31T04:43:33.166Z,2018-08-31T04:43:33.166Z,0,0,US,False,43294,True
43428,LAX Terminal B,World Way,Los Angeles ,California ,True,True,Across from Gate 133,,33.9432746,-118.4005954,2018-09-07T16:46:16.929Z,2018-09-07T16:46:16.929Z,0,1,US,True,43428,True
43787,Target,3535 S La Cienega Blvd,Los Angeles,California,True,False,Family restroom just to left of front doors,You can walk straight to bathroom ,34.023439,-118.3737698,2018-09-11T22:53:22.636Z,2018-09-11T22:53:22.636Z,0,0,US,True,43787,True
43887,Life Sciences Building,Charles E Young Dr. ,Los Angeles,CA,True,True,"Fifth floor, northern part of the building",,34.0722439,-118.4396358,2018-09-12T17:36:25.585Z,2018-09-12T17:36:25.585Z,0,0,US,False,43887,True
43889,Life Sciences Building,612 Charles D Young Dr. ,Los Angeles,CA,True,True,"Fifth floor, north hallway of the building",,34.0669188,-118.4404683,2018-09-12T17:40:02.884Z,2020-04-14T21:26:30.282Z,0,0,US,False,43889,True
44089,Superior Grocers,S Central Ave,Los Angeles,California,True,True,They are on the right side of the exit.,"Single stall, sign says ""all-gender"" and has a disabled symbol on it",33.9474186,-118.2540869,2018-09-14T22:40:47.883Z,2020-04-14T21:24:27.024Z,0,0,US,False,44089,True
44334,Michelson Hall,McClintock Ave.,Los Angeles,CA,True,True,"First Floor public bathrooms, open weekdays during business hours",Accessible shower in single stall Bathroom,34.0235508,-118.2880755,2018-09-17T18:31:08.333Z,2020-04-14T21:15:16.407Z,0,0,US,False,44334,True
44335,Ethel Percy Andrus Gerontology Center,3715 McClintock Ave.,Los Angeles,CA,True,True,First floor bathroom is open to the public during weekday business hours,,34.0200617,-118.2907251,2018-09-17T18:34:11.866Z,2020-04-14T21:15:16.923Z,0,0,US,False,44335,True
44699,Soul Restaurant ,7046 Hollywood Blvd ,Los Angeles,CA,False,True,Up on balcony to the left. ,,34.10132038450693,-118.34334753430639,2018-09-27T20:59:19.025Z,2018-09-27T20:59:19.025Z,0,0,US,False,44699,True
44895,Trader Joe’s,3456 S Sepulveda Blvd,Los Angeles,California,True,True,Back of the store on the left hand side,Two unisex single stalls,34.020546753922495,-118.42229244310262,2018-10-05T02:05:41.361Z,2018-10-05T02:05:41.361Z,0,0,US,True,44895,True
45022,Blu Elefant Cafe,2024 W Washington Blvd,Los Angeles,CA,True,True,,Have to ask for key,34.0397672,-118.3039335,2018-10-09T06:43:51.552Z,2020-04-14T21:32:05.601Z,0,0,US,False,45022,True
45030,Boba Time,"3945, 3617 Vermont Ave",Los Angeles,CA,False,True,,Requires a code from the cashier,34.0224643,-118.2922836,2018-10-09T16:25:48.170Z,2020-04-14T21:32:12.757Z,0,0,US,False,45030,True
45281, Boston Market,8901 S. Sepulveda Blvd,"Westchester, Los Angeles",CA,True,True,In the back (on the left when you walk in) near the drink station  but down a little hallway.,,33.9557892,-118.3965182,2018-10-20T03:06:21.858Z,2020-04-14T21:33:35.602Z,0,1,US,True,45281,True
45386,USC School of Cinematic Arts,900 W 34th St,Los Angeles,CA,False,True,,,34.0235777,-118.2865005,2018-10-25T04:54:51.684Z,2020-04-14T21:34:13.115Z,0,0,US,False,45386,True
